[{"pk": "321605", "model": "places.restaurant", "fields": {"rating": "4", "management_rating": "5", "name": "114 The Arch Restaurant", "structural_rating": "10", "address": "114 Richardshaw Lane,Stanningley,LS28 6BN", "lat": "53.80284000000000", "hygiene_rating": "5", "long": "-1.66545500000000"}}, {"pk": "546068", "model": "places.restaurant", "fields": {"rating": "4", "management_rating": "0", "name": "147 Sports Bar", "structural_rating": "5", "address": "7 Chapeltown,Pudsey,LS28 7RZ", "lat": "53.79256200000000", "hygiene_rating": "10", "long": "-1.66996900000000"}}, {"pk": "457963", "model": "places.restaurant", "fields": {"rating": "4", "management_rating": "5", "name": "168 Chinese And Thai Takeaway", "structural_rating": "5", "address": "15 Burton Avenue,Beeston,LS11 5ET", "lat": "53.77751200000000", "hygiene_rating": "10", "long": "-1.54036000000000"}}, {"pk": "322497", "model": "places.restaurant", "fields": {"rating": "1", "management_rating": "20", "name": "168 Chinese Takeaway", "structural_rating": "10", "address": "17 Alexandra Road,Horsforth,LS18 4HE", "lat": "53.83713200000000", "hygiene_rating": "10", "long": "-1.62969900000000"}}, {"pk": "322167", "model": "places.restaurant", "fields": {"rating": "4", "management_rating": "5", "name": "1Pizza1.com", "structural_rating": "10", "address": "160A Leeds Road,Rothwell,LS26 0JH", "lat": "53.75671900000000", "hygiene_rating": "5", "long": "-1.47186500000000"}}, {"pk": "323607", "model": "places.restaurant", "fields": {"rating": "3", "management_rating": "10", "name": "1st Bowl Leeds", "structural_rating": "10", "address": "13 Merrion Way,Leeds,LS2 8BT", "lat": "53.80236700000000", "hygiene_rating": "10", "long": "-1.54365700000000"}}, {"pk": "620730", "model": "places.restaurant", "fields": {"rating": "5", "management_rating": "5", "name": "360 Champagne And Cocktails", "structural_rating": "5", "address": "TK7 Trinity Kitchen,401 Trinity Leeds,LS1 5AY", "lat": "53.79647100000000", "hygiene_rating": "0", "long": "-1.54369000000000"}}, {"pk": "537113", "model": "places.restaurant", "fields": {"rating": "3", "management_rating": "10", "name": "3Bs Takeaway", "structural_rating": "10", "address": "110 Gelderd Road,Wortley,LS12 6BY", "lat": "53.78409800000000", "hygiene_rating": "10", "long": "-1.57637900000000"}}, {"pk": "322189", "model": "places.restaurant", "fields": {"rating": "4", "management_rating": "10", "name": "4 Children (Westerton Primary)", "structural_rating": "0", "address": "Westerton Primary School,Hesketh Lane,WF3 1AR", "lat": "53.72485300000000", "hygiene_rating": "5", "long": "-1.57780800000000"}}, {"pk": "320307", "model": "places.restaurant", "fields": {"rating": "4", "management_rating": "10", "name": "6 Mays", "structural_rating": "0", "address": "20 Whingate Road,Armley,LS12 3DS", "lat": "53.79474000000000", "hygiene_rating": "5", "long": "-1.60273200000000"}}, {"pk": "551537", "model": "places.restaurant", "fields": {"rating": "5", "management_rating": "5", "name": "7 Day Catering", "structural_rating": "5", "address": "Leeds College Of Art,Blenheim Walk,LS2 9AQ", "lat": "53.80845600000000", "hygiene_rating": "5", "long": "-1.55179100000000"}}, {"pk": "323044", "model": "places.restaurant", "fields": {"rating": "5", "management_rating": "5", "name": "7 Day Catering Ltd", "structural_rating": "5", "address": "West Yorkshire Strategic Health Aut,Blenheim House,LS1 4PL", "lat": "53.79879600000000", "hygiene_rating": "0", "long": "-1.55968200000000"}}, {"pk": "322393", "model": "places.restaurant", "fields": {"rating": "4", "management_rating": "5", "name": "7 Spices", "structural_rating": "10", "address": "203-207 Woodhouse Street,Woodhouse,LS6 2NY", "lat": "53.81408400000000", "hygiene_rating": "5", "long": "-1.55467700000000"}}, {"pk": "323157", "model": "places.restaurant", "fields": {"rating": "2", "management_rating": "10", "name": "7 To 11 Chinese Take Away", "structural_rating": "10", "address": "34 Wakefield Road,Drighlington,BD11 1DL", "lat": "53.75377000000000", "hygiene_rating": "15", "long": "-1.65410600000000"}}, {"pk": "321421", "model": "places.restaurant", "fields": {"rating": "4", "management_rating": "5", "name": "71 Cafe Bar", "structural_rating": "10", "address": "71 Street Lane,Roundhay,LS8 1AP", "lat": "53.84414300000000", "hygiene_rating": "0", "long": "-1.50937100000000"}}, {"pk": "320786", "model": "places.restaurant", "fields": {"rating": "4", "management_rating": "10", "name": "7TH South Leeds (Rothwell) Scout", "structural_rating": "5", "address": "45 Haigh Road,Rothwell,LS26 0LW", "lat": "53.75531300000000", "hygiene_rating": "5", "long": "-1.47920800000000"}}, {"pk": "550338", "model": "places.restaurant", "fields": {"rating": "2", "management_rating": "10", "name": "A And A News", "structural_rating": "10", "address": "134 Dib Lane,Roundhay,LS8 3AY", "lat": "53.82310700000000", "hygiene_rating": "15", "long": "-1.48681500000000"}}, {"pk": "466957", "model": "places.restaurant", "fields": {"rating": "5", "management_rating": "5", "name": "A And J Marsay", "structural_rating": "0", "address": "251 Dewsbury Road,Hunslet,LS11 5HZ", "lat": "53.77556100000000", "hygiene_rating": "5", "long": "-1.54502500000000"}}, {"pk": "537115", "model": "places.restaurant", "fields": {"rating": "4", "management_rating": "5", "name": "A Comer", "structural_rating": "10", "address": "3B Harrogate Road,Rawdon,LS19 6HW", "lat": "53.85389100000000", "hygiene_rating": "5", "long": "-1.68491700000000"}}, {"pk": "323351", "model": "places.restaurant", "fields": {"rating": "3", "management_rating": "10", "name": "A M Kitchen And Bar", "structural_rating": "10", "address": "Dysons Clock Building,24 - 26 Briggate,LS1 6HD", "lat": "53.79671100000000", "hygiene_rating": "10", "long": "-1.54291400000000"}}, {"pk": "320519", "model": "places.restaurant", "fields": {"rating": "4", "management_rating": "5", "name": "A Megson And Sons", "structural_rating": "10", "address": "10 Alexandra Road,Horsforth,LS18 4HD", "lat": "53.83697200000000", "hygiene_rating": "0", "long": "-1.63023200000000"}}, {"pk": "320660", "model": "places.restaurant", "fields": {"rating": "4", "management_rating": "10", "name": "A Teale And Son", "structural_rating": "5", "address": "11 Manor Square,Otley,LS21 3AP", "lat": "53.90608100000000", "hygiene_rating": "5", "long": "-1.69434300000000"}}, {"pk": "454484", "model": "places.restaurant", "fields": {"rating": "4", "management_rating": "0", "name": "A Teale And Son Ltd", "structural_rating": "10", "address": "26 Kirkgate,Otley,LS21 3HJ", "lat": "53.90481200000000", "hygiene_rating": "0", "long": "-1.69386500000000"}}, {"pk": "636847", "model": "places.restaurant", "fields": {"rating": "5", "management_rating": "5", "name": "A Top Shop", "structural_rating": "5", "address": ",,", "lat": null, "hygiene_rating": "5", "long": null}}, {"pk": "320413", "model": "places.restaurant", "fields": {"rating": "5", "management_rating": "5", "name": "A W Hainsworth And Sons Ltd", "structural_rating": "5", "address": "Spring Valley Mills,Town Street,LS28 6DW", "lat": "53.80616600000000", "hygiene_rating": "0", "long": "-1.66550400000000"}}, {"pk": "319530", "model": "places.restaurant", "fields": {"rating": "5", "management_rating": "5", "name": "A W Scott (Austhorpe)", "structural_rating": "5", "address": "29 Austhorpe Road,Cross Gates,LS15 8BA", "lat": "53.80748100000000", "hygiene_rating": "0", "long": "-1.44936100000000"}}, {"pk": "320560", "model": "places.restaurant", "fields": {"rating": "5", "management_rating": "5", "name": "A W Scott (Garforth)", "structural_rating": "5", "address": "33A Main Street,Garforth,LS25 1DS", "lat": "53.79289600000000", "hygiene_rating": "5", "long": "-1.38858800000000"}}, {"pk": "322139", "model": "places.restaurant", "fields": {"rating": "5", "management_rating": "5", "name": "A1 News And Mini Market", "structural_rating": "5", "address": "2 Manston Approach,Cross Gates,LS15 8BQ", "lat": "53.81129600000000", "hygiene_rating": "0", "long": "-1.44826300000000"}}, {"pk": "320345", "model": "places.restaurant", "fields": {"rating": "4", "management_rating": "10", "name": "AAA Supermarket", "structural_rating": "0", "address": "24 Woodsley Road,Woodhouse,LS3 1DT", "lat": "53.80560500000000", "hygiene_rating": "10", "long": "-1.56849400000000"}}, {"pk": "321199", "model": "places.restaurant", "fields": {"rating": "4", "management_rating": "10", "name": "Aagrah (Leeds)", "structural_rating": "5", "address": "1 St Peters Square,Leeds,LS9 8AH", "lat": "53.79752600000000", "hygiene_rating": "5", "long": "-1.53290000000000"}}, {"pk": "320553", "model": "places.restaurant", "fields": {"rating": "5", "management_rating": "5", "name": "Aagrah Restaurant", "structural_rating": "5", "address": "Aberford Road,Garforth,LS25 2HF", "lat": "53.79842800000000", "hygiene_rating": "0", "long": "-1.36866500000000"}}, {"pk": "471138", "model": "places.restaurant", "fields": {"rating": "4", "management_rating": "0", "name": "Aagrah Restaurant (Chapel Allerton) LLP", "structural_rating": "10", "address": "33 - 39 Harrogate Road,Moortown,LS7 3PD", "lat": "53.82801400000000", "hygiene_rating": "0", "long": "-1.53765100000000"}}, {"pk": "322416", "model": "places.restaurant", "fields": {"rating": "5", "management_rating": "5", "name": "Aagrah Restaurant And The Midpoint Suite", "structural_rating": "5", "address": "The Aagrah Building,Mid Point,BD3 7AY", "lat": "53.79851000000000", "hygiene_rating": "5", "long": "-1.70390000000000"}}, {"pk": "542462", "model": "places.restaurant", "fields": {"rating": "4", "management_rating": "10", "name": "Abaseen Superstore", "structural_rating": "5", "address": "231 Harehills Lane,Harehills,LS8 3QH", "lat": "53.81449200000000", "hygiene_rating": "5", "long": "-1.51378700000000"}}, {"pk": "319617", "model": "places.restaurant", "fields": {"rating": "5", "management_rating": "5", "name": "Abbey Grange C Of E Academy", "structural_rating": "0", "address": "Butcher Hill,West Park,LS16 5EA", "lat": "53.83395500000000", "hygiene_rating": "0", "long": "-1.60843900000000"}}, {"pk": "466944", "model": "places.restaurant", "fields": {"rating": 0, "management_rating": 0, "name": "Abbey Home Brew", "structural_rating": 0, "address": "8 Commercial Road,Kirkstall,LS5 3AQ", "lat": "53.81496800000000", "hygiene_rating": 0, "long": "-1.60172100000000"}}, {"pk": "320061", "model": "places.restaurant", "fields": {"rating": "3", "management_rating": "10", "name": "Abbey Inn", "structural_rating": "10", "address": "Pollard Lane,Bramley,LS13 1EQ", "lat": "53.82671300000000", "hygiene_rating": "10", "long": "-1.63782800000000"}}, {"pk": "467417", "model": "places.restaurant", "fields": {"rating": "5", "management_rating": "5", "name": "ABC Cafe", "structural_rating": "5", "address": "Unit 11 Holt Park Shopping Centre,Holt Road,LS16 7SR", "lat": "53.85556300000000", "hygiene_rating": "5", "long": "-1.60601800000000"}}, {"pk": "321515", "model": "places.restaurant", "fields": {"rating": "5", "management_rating": "5", "name": "ABC Daycare And Ozone", "structural_rating": "0", "address": "Allerton Bywater Community Centre,The Old School,WF10 2DJ", "lat": "53.74615200000000", "hygiene_rating": "0", "long": "-1.36838700000000"}}, {"pk": "322853", "model": "places.restaurant", "fields": {"rating": "4", "management_rating": "0", "name": "ABC Nursery", "structural_rating": "10", "address": "Elland Road,Holbeck,LS11 0ES", "lat": "53.77718700000000", "hygiene_rating": "0", "long": "-1.57154700000000"}}, {"pk": "448657", "model": "places.restaurant", "fields": {"rating": "5", "management_rating": "5", "name": "Aberford Hall Nursing Home - HC-One", "structural_rating": "0", "address": "Oakwood Green,Roundhay,LS8 2QU", "lat": "53.82605600000000", "hygiene_rating": "0", "long": "-1.49337200000000"}}, {"pk": "550354", "model": "places.restaurant", "fields": {"rating": "4", "management_rating": "10", "name": "Aberford Kids Club", "structural_rating": "0", "address": "Aberford C Of E Primary School,Main Street,LS25 3DA", "lat": "53.82775500000000", "hygiene_rating": "0", "long": "-1.34329300000000"}}, {"pk": "321339", "model": "places.restaurant", "fields": {"rating": "2", "management_rating": "10", "name": "Abids", "structural_rating": "15", "address": "116 Town Street,Stanningley,LS28 6EZ", "lat": "53.80732500000000", "hygiene_rating": "5", "long": "-1.66210900000000"}}, {"pk": "636826", "model": "places.restaurant", "fields": {"rating": "3", "management_rating": "10", "name": "Abu Bakar", "structural_rating": "10", "address": "215 Roundhay Road,Leeds,LS8 4HS", "lat": "53.81701400000000", "hygiene_rating": "10", "long": "-1.51734300000000"}}, {"pk": "320079", "model": "places.restaurant", "fields": {"rating": "1", "management_rating": "20", "name": "Abu Bakar Supermarket", "structural_rating": "15", "address": "37 Queens Road,Woodhouse,LS6 1NY", "lat": "53.80965600000000", "hygiene_rating": "10", "long": "-1.57027500000000"}}, {"pk": "320928", "model": "places.restaurant", "fields": {"rating": "5", "management_rating": "5", "name": "Acacia Court Residential Care Home", "structural_rating": "5", "address": "Crawshaw Hill,Pudsey,LS28 7BW", "lat": "53.79583000000000", "hygiene_rating": "5", "long": "-1.66214000000000"}}, {"pk": "320765", "model": "places.restaurant", "fields": {"rating": "3", "management_rating": "10", "name": "Ackroyd Street WMC", "structural_rating": "10", "address": "School Street,Morley,LS27 8BW", "lat": "53.74498600000000", "hygiene_rating": "10", "long": "-1.59583200000000"}}, {"pk": "455722", "model": "places.restaurant", "fields": {"rating": "1", "management_rating": "20", "name": "Acorn Inn", "structural_rating": "0", "address": "416 Leeds And Bradford Road,Bramley,LS13 1NS", "lat": "53.81971000000000", "hygiene_rating": "5", "long": "-1.63424200000000"}}, {"pk": "321321", "model": "places.restaurant", "fields": {"rating": "5", "management_rating": "5", "name": "Acorns In Adel", "structural_rating": "0", "address": "469 Otley Road,Headingley,LS16 7NR", "lat": "53.85485000000000", "hygiene_rating": "0", "long": "-1.59164300000000"}}, {"pk": "323564", "model": "places.restaurant", "fields": {"rating": "5", "management_rating": "5", "name": "Acre Green Nursing Home", "structural_rating": "5", "address": "Acre Close,Middleton,LS10 4HX", "lat": "53.74308400000000", "hygiene_rating": "5", "long": "-1.54649700000000"}}, {"pk": "322462", "model": "places.restaurant", "fields": {"rating": "4", "management_rating": "10", "name": "Acre Wood Nursery", "structural_rating": "5", "address": "Westfield Hall,1 Westfield Court,LS12 4PX", "lat": "53.78388600000000", "hygiene_rating": "5", "long": "-1.59843300000000"}}, {"pk": "321608", "model": "places.restaurant", "fields": {"rating": "5", "management_rating": "0", "name": "Active Kids", "structural_rating": "0", "address": "Scan House, Moorfield Road,Yeadon,LS19 7BN", "lat": "53.86526700000000", "hygiene_rating": "5", "long": "-1.67379200000000"}}, {"pk": "322982", "model": "places.restaurant", "fields": {"rating": "1", "management_rating": "20", "name": "Adams", "structural_rating": "10", "address": "66 Lincoln Green Road,Burmantofts,LS9 7SU", "lat": "53.80210200000000", "hygiene_rating": "10", "long": "-1.52612300000000"}}, {"pk": "322546", "model": "places.restaurant", "fields": {"rating": "3", "management_rating": "10", "name": "Adams Hot Food", "structural_rating": "10", "address": "15 Middleton Park Circus,Middleton,LS10 4LX", "lat": "53.74776600000000", "hygiene_rating": "10", "long": "-1.54863100000000"}}, {"pk": "319508", "model": "places.restaurant", "fields": {"rating": "5", "management_rating": "5", "name": "Adel Grange Residential Home", "structural_rating": "5", "address": "Adel Grange Close,Adel,LS16 8HX", "lat": "53.84598900000000", "hygiene_rating": "0", "long": "-1.58411500000000"}}, {"pk": "322325", "model": "places.restaurant", "fields": {"rating": 0, "management_rating": 0, "name": "Adel Pharmacy", "structural_rating": 0, "address": "141 Long Causeway,Adel,LS16 8EX", "lat": "53.85080300000000", "hygiene_rating": 0, "long": "-1.58049500000000"}}, {"pk": "320038", "model": "places.restaurant", "fields": {"rating": "1", "management_rating": "20", "name": "Adel Pizza", "structural_rating": "15", "address": "431 Otley Road,Headingley,LS16 6AJ", "lat": "53.85257900000000", "hygiene_rating": "15", "long": "-1.59239500000000"}}, {"pk": "319648", "model": "places.restaurant", "fields": {"rating": "4", "management_rating": "5", "name": "Adel War Memorial Association", "structural_rating": "10", "address": "Church Lane,Adel,LS16 8DE", "lat": "53.85520300000000", "hygiene_rating": "0", "long": "-1.58714000000000"}}, {"pk": "320388", "model": "places.restaurant", "fields": {"rating": "4", "management_rating": "10", "name": "Adel Wood Store", "structural_rating": "0", "address": "Wayland Croft,Adel,LS16 8LA", "lat": "53.85297900000000", "hygiene_rating": "10", "long": "-1.57819300000000"}}, {"pk": "322956", "model": "places.restaurant", "fields": {"rating": "1", "management_rating": "20", "name": "Adils", "structural_rating": "10", "address": "14 Stainbeck Lane,Meanwood,LS7 3QY", "lat": "53.82908100000000", "hygiene_rating": "15", "long": "-1.53935600000000"}}, {"pk": "495566", "model": "places.restaurant", "fields": {"rating": "4", "management_rating": "10", "name": "Adils Takeaway", "structural_rating": "5", "address": "3 Burley Street,Burley,LS3 1LD", "lat": "53.80001800000000", "hygiene_rating": "5", "long": "-1.55951800000000"}}, {"pk": "320606", "model": "places.restaurant", "fields": {"rating": "5", "management_rating": "5", "name": "Admiral Hawke Inn", "structural_rating": "5", "address": "252 High Street,Boston Spa,LS23 6AJ", "lat": "53.90165100000000", "hygiene_rating": "0", "long": "-1.33769100000000"}}, {"pk": "466906", "model": "places.restaurant", "fields": {"rating": "5", "management_rating": "5", "name": "Adrian Club And Institute", "structural_rating": "5", "address": "Belle Vue Avenue,Roundhay,LS8 2NN", "lat": "53.82450400000000", "hygiene_rating": "5", "long": "-1.48988200000000"}}, {"pk": "319819", "model": "places.restaurant", "fields": {"rating": "4", "management_rating": "10", "name": "Adriatic Hotel", "structural_rating": "5", "address": "83 - 89 Harehills Avenue,Harehills,LS8 4ET", "lat": "53.81837400000000", "hygiene_rating": "5", "long": "-1.51808700000000"}}, {"pk": "323408", "model": "places.restaurant", "fields": {"rating": "5", "management_rating": "5", "name": "Afterz", "structural_rating": "5", "address": "63 Queens Road,Woodhouse,LS6 1HY", "lat": "53.81104700000000", "hygiene_rating": "5", "long": "-1.56974400000000"}}, {"pk": "578280", "model": "places.restaurant", "fields": {"rating": "3", "management_rating": "10", "name": "Ahmeds Fast Food Leeds Ltd", "structural_rating": "5", "address": "257 Elland Road,Holbeck,LS11 8TU", "lat": "53.77653300000000", "hygiene_rating": "10", "long": "-1.57219100000000"}}, {"pk": "320476", "model": "places.restaurant", "fields": {"rating": "4", "management_rating": "5", "name": "Airborough Coffee Bar", "structural_rating": "10", "address": "The Green,Guiseley,LS20 9BT", "lat": "53.87198600000000", "hygiene_rating": "0", "long": "-1.70709300000000"}}, {"pk": "321207", "model": "places.restaurant", "fields": {"rating": "5", "management_rating": "5", "name": "Aire Bar", "structural_rating": "5", "address": "32 The Calls,Leeds,LS2 7EW", "lat": "53.79488100000000", "hygiene_rating": "5", "long": "-1.53913800000000"}}, {"pk": "319924", "model": "places.restaurant", "fields": {"rating": "5", "management_rating": "5", "name": "Aire Court Community Unit", "structural_rating": "0", "address": "Lingwell Grove,Middleton,LS10 4BS", "lat": "53.74661500000000", "hygiene_rating": "0", "long": "-1.53912000000000"}}, {"pk": "321541", "model": "places.restaurant", "fields": {"rating": "4", "management_rating": "10", "name": "Aire Of The Dog", "structural_rating": "5", "address": "5 Cardigan Fields Leisure Park,Cardigan Fields Road,LS4 2DG", "lat": "53.80437200000000", "hygiene_rating": "0", "long": "-1.58335700000000"}}, {"pk": "322684", "model": "places.restaurant", "fields": {"rating": "5", "management_rating": "5", "name": "Aire View Care Home", "structural_rating": "5", "address": "29 Broad Lane,Bramley,LS5 3ED", "lat": "53.81376500000000", "hygiene_rating": "0", "long": "-1.61022200000000"}}, {"pk": "320432", "model": "places.restaurant", "fields": {"rating": "5", "management_rating": "0", "name": "Airedale Residential Home", "structural_rating": "0", "address": "56 Church Lane,Pudsey,LS28 7RF", "lat": "53.79503700000000", "hygiene_rating": "0", "long": "-1.66491000000000"}}, {"pk": "322076", "model": "places.restaurant", "fields": {"rating": "4", "management_rating": "10", "name": "AJ Afro Caribbean Food And Veg", "structural_rating": "0", "address": "Stall 410 Area 1981 Kirkgate Market,Kirkgate,LS2 7JJ", "lat": "53.79723600000000", "hygiene_rating": "0", "long": "-1.53912800000000"}}, {"pk": "553159", "model": "places.restaurant", "fields": {"rating": "2", "management_rating": "10", "name": "AJ's", "structural_rating": "15", "address": "111 Lodge Lane,Beeston,LS11 6JF", "lat": "53.77446200000000", "hygiene_rating": "10", "long": "-1.55160700000000"}}, {"pk": "322983", "model": "places.restaurant", "fields": {"rating": "4", "management_rating": "10", "name": "AJ's Fisheries", "structural_rating": "5", "address": "195 - 197 Lower Wortley Road,Lower Wortley,LS12 4PX", "lat": "53.78388600000000", "hygiene_rating": "5", "long": "-1.59843300000000"}}, {"pk": "553204", "model": "places.restaurant", "fields": {"rating": "4", "management_rating": "5", "name": "AJWD Catering", "structural_rating": "5", "address": "The Black Bull,53 Market Place,LS22 6LN", "lat": "53.92858600000000", "hygiene_rating": "10", "long": "-1.38648600000000"}}, {"pk": "537077", "model": "places.restaurant", "fields": {"rating": "3", "management_rating": "10", "name": "AK Food And Wine", "structural_rating": "10", "address": "37 Town Street,Armley,LS12 1UX", "lat": "53.79690700000000", "hygiene_rating": "10", "long": "-1.58977700000000"}}, {"pk": "321135", "model": "places.restaurant", "fields": {"rating": "5", "management_rating": "0", "name": "Akbars", "structural_rating": "5", "address": "15 Eastgate,Leeds,LS2 7LY", "lat": "53.79900400000000", "hygiene_rating": "0", "long": "-1.53850100000000"}}, {"pk": "321167", "model": "places.restaurant", "fields": {"rating": "5", "management_rating": "5", "name": "Akbars The Grand", "structural_rating": "5", "address": "16 Greek Street,Leeds,LS1 5RU", "lat": "53.79822100000000", "hygiene_rating": "5", "long": "-1.54775500000000"}}, {"pk": "509357", "model": "places.restaurant", "fields": {"rating": "5", "management_rating": "5", "name": "Akina Chinese Takeaway", "structural_rating": "5", "address": "8 Whinbrook Crescent,Chapel Allerton,LS17 5PN", "lat": "53.83815500000000", "hygiene_rating": "0", "long": "-1.54311600000000"}}, {"pk": "320237", "model": "places.restaurant", "fields": {"rating": "3", "management_rating": "10", "name": "AKN Wine Store", "structural_rating": "10", "address": "36 Tinshill Road,Cookridge,LS16 7DU", "lat": "53.85799900000000", "hygiene_rating": "5", "long": "-1.61710900000000"}}, {"pk": "542447", "model": "places.restaurant", "fields": {"rating": "4", "management_rating": "10", "name": "AKs Snacks", "structural_rating": "5", "address": ",,", "lat": null, "hygiene_rating": "0", "long": null}}, {"pk": "565844", "model": "places.restaurant", "fields": {"rating": "2", "management_rating": "10", "name": "Al Madina Superstore", "structural_rating": "15", "address": "73 - 75 Dorset Road,Harehills,LS8 3QL", "lat": "53.81487800000000", "hygiene_rating": "10", "long": "-1.51164100000000"}}, {"pk": "320220", "model": "places.restaurant", "fields": {"rating": "1", "management_rating": "20", "name": "Aladdin News", "structural_rating": "5", "address": "7 The Crescent,Woodhouse,LS6 2NW", "lat": "53.81471900000000", "hygiene_rating": "0", "long": "-1.56123200000000"}}, {"pk": "323586", "model": "places.restaurant", "fields": {"rating": "4", "management_rating": "5", "name": "Alan Scott Catering", "structural_rating": "10", "address": "Garforth Golf Club,Long Lane,LS25 2DS", "lat": "53.81279500000000", "hygiene_rating": "0", "long": "-1.38852700000000"}}, {"pk": "320503", "model": "places.restaurant", "fields": {"rating": "4", "management_rating": "5", "name": "Albert Inn", "structural_rating": "10", "address": "High Street,Yeadon,LS19 7TA", "lat": "53.86612500000000", "hygiene_rating": "0", "long": "-1.67875800000000"}}, {"pk": "320100", "model": "places.restaurant", "fields": {"rating": "5", "management_rating": "0", "name": "Aldi (Beeston)", "structural_rating": "5", "address": "Unit 2 Junction 1 Retail Park,Ring Road Beeston,LS11 0BD", "lat": "53.77285500000000", "hygiene_rating": "0", "long": "-1.58186300000000"}}, {"pk": "467101", "model": "places.restaurant", "fields": {"rating": "5", "management_rating": "5", "name": "Aldi (Meanwood)", "structural_rating": "0", "address": "Unit 1 Northside Retail Park,Stonegate Road,LS7 2TT", "lat": "53.82874200000000", "hygiene_rating": "5", "long": "-1.56412400000000"}}, {"pk": "322900", "model": "places.restaurant", "fields": {"rating": "5", "management_rating": "5", "name": "Aldi (Seacroft)", "structural_rating": "0", "address": "York Road,Leeds,LS14 6HP", "lat": "53.81491900000000", "hygiene_rating": "0", "long": "-1.45634100000000"}}, {"pk": "320742", "model": "places.restaurant", "fields": {"rating": "5", "management_rating": "5", "name": "Alexander Residential Home", "structural_rating": "5", "address": "Victoria Road,Churwell,LS27 9JJ", "lat": "53.75427900000000", "hygiene_rating": "0", "long": "-1.59845700000000"}}, {"pk": "405918", "model": "places.restaurant", "fields": {"rating": "5", "management_rating": "0", "name": "Alexandra Court", "structural_rating": "5", "address": "333 Spen Lane,West Park,LS16 5BB", "lat": "53.83585600000000", "hygiene_rating": "0", "long": "-1.60141600000000"}}, {"pk": "626731", "model": "places.restaurant", "fields": {"rating": "3", "management_rating": "10", "name": "Alfies General Store And Metcalfs Farm Shop", "structural_rating": "5", "address": "Green Side Farm,Warm Lane,LS19 7DW", "lat": "53.85750500000000", "hygiene_rating": "10", "long": "-1.69217300000000"}}, {"pk": "323413", "model": "places.restaurant", "fields": {"rating": "5", "management_rating": "0", "name": "Alfred", "structural_rating": "5", "address": "4 - 8 Stonegate Road,Meanwood,LS6 4HY", "lat": "53.82838000000000", "hygiene_rating": "0", "long": "-1.56584500000000"}}, {"pk": "321931", "model": "places.restaurant", "fields": {"rating": "5", "management_rating": "5", "name": "Alfresco Pizzeria", "structural_rating": "5", "address": "20 Manor Road,Rothwell,LS26 0RD", "lat": "53.75270400000000", "hygiene_rating": "0", "long": "-1.48691400000000"}}, {"pk": "528947", "model": "places.restaurant", "fields": {"rating": "1", "management_rating": "10", "name": "Al-Hyat Groceries", "structural_rating": "20", "address": "72 Harehills Road,Harehills,LS8 5NU", "lat": "53.80911300000000", "hygiene_rating": "10", "long": "-1.51737300000000"}}, {"pk": "320616", "model": "places.restaurant", "fields": {"rating": "5", "management_rating": "0", "name": "Ali Raj Tandoori Takeaway", "structural_rating": "0", "address": "3 Bank Street,Wetherby,LS22 6NQ", "lat": "53.92889200000000", "hygiene_rating": "0", "long": "-1.38657300000000"}}, {"pk": "504556", "model": "places.restaurant", "fields": {"rating": "1", "management_rating": "20", "name": "Ali's", "structural_rating": "20", "address": "65 Easy Road,Cross Green,LS9 8QS", "lat": "53.79119300000000", "hygiene_rating": "10", "long": "-1.52008300000000"}}, {"pk": "320214", "model": "places.restaurant", "fields": {"rating": "4", "management_rating": "5", "name": "Alis Takeaway", "structural_rating": "10", "address": "1A - 1B Tempest Road,Beeston,LS11 6AU", "lat": "53.77689100000000", "hygiene_rating": "5", "long": "-1.55447900000000"}}, {"pk": "321366", "model": "places.restaurant", "fields": {"rating": "3", "management_rating": "10", "name": "Aliya Takeaway", "structural_rating": "10", "address": "38 Bridge End,Leeds,LS1 4DJ", "lat": "53.79339000000000", "hygiene_rating": "10", "long": "-1.54187200000000"}}, {"pk": "321122", "model": "places.restaurant", "fields": {"rating": "5", "management_rating": "0", "name": "All Bar One", "structural_rating": "0", "address": "27 East Parade,Leeds,LS1 5BN", "lat": "53.79857600000000", "hygiene_rating": "0", "long": "-1.54895100000000"}}, {"pk": "559026", "model": "places.restaurant", "fields": {"rating": "5", "management_rating": "5", "name": "All Bar One", "structural_rating": "5", "address": "4 Millennium Square,Leeds,LS2 3AD", "lat": "53.80097300000000", "hygiene_rating": "5", "long": "-1.54807500000000"}}, {"pk": "542442", "model": "places.restaurant", "fields": {"rating": "4", "management_rating": "10", "name": "All Hallows Community Projects", "structural_rating": "0", "address": "All Hallows Church Hall,1 Vicarage Road,LS6 1NU", "lat": "53.80940700000000", "hygiene_rating": "0", "long": "-1.56850100000000"}}, {"pk": "320657", "model": "places.restaurant", "fields": {"rating": "5", "management_rating": "5", "name": "All Saints Out Of School Club", "structural_rating": "0", "address": "Cross Green,Otley,LS21 1HD", "lat": "53.90577900000000", "hygiene_rating": "0", "long": "-1.68894100000000"}}, {"pk": "583858", "model": "places.restaurant", "fields": {"rating": "5", "management_rating": "5", "name": "All Stars Child Care", "structural_rating": "5", "address": "Design House,1 Coal Hill Lane,LS28 5NA", "lat": "53.81511500000000", "hygiene_rating": "5", "long": "-1.66121100000000"}}, {"pk": "320594", "model": "places.restaurant", "fields": {"rating": "5", "management_rating": "0", "name": "Allerton Bywater Post Office", "structural_rating": "0", "address": "4 Highfield Drive,Allerton Bywater,WF10 2EA", "lat": "53.75108400000000", "hygiene_rating": "0", "long": "-1.37989900000000"}}, {"pk": "555784", "model": "places.restaurant", "fields": {"rating": "5", "management_rating": "5", "name": "Allerton Bywater Primary Breakfast Club", "structural_rating": "0", "address": "Allerton Bywater Primary School,Leeds Road,WF10 2DR", "lat": "53.74707300000000", "hygiene_rating": "0", "long": "-1.37096600000000"}}, {"pk": "320578", "model": "places.restaurant", "fields": {"rating": "5", "management_rating": "5", "name": "Allerton Bywater Youth And Adult Centre", "structural_rating": "5", "address": "Leeds Road,Allerton Bywater,WF10 2DP", "lat": "53.74759600000000", "hygiene_rating": "5", "long": "-1.37303600000000"}}, {"pk": "321647", "model": "places.restaurant", "fields": {"rating": "4", "management_rating": "5", "name": "Allerton Tandoori", "structural_rating": "10", "address": "38 Harrogate Road,Moortown,LS7 4LA", "lat": "53.82586100000000", "hygiene_rating": "5", "long": "-1.53410400000000"}}, {"pk": "322196", "model": "places.restaurant", "fields": {"rating": 0, "management_rating": 0, "name": "Alliance Pharmacy", "structural_rating": 0, "address": "11 New Road Side,Rawdon,LS19 6DD", "lat": "53.85547900000000", "hygiene_rating": 0, "long": "-1.68744400000000"}}, {"pk": "322206", "model": "places.restaurant", "fields": {"rating": 0, "management_rating": 0, "name": "Alliance Pharmacy", "structural_rating": 0, "address": "262 - 266 Harehills Lane,Harehills,LS9 7ED", "lat": "53.79495300000000", "hygiene_rating": 0, "long": "-1.50467700000000"}}, {"pk": "322201", "model": "places.restaurant", "fields": {"rating": 0, "management_rating": 0, "name": "Alliance Pharmacy", "structural_rating": 0, "address": "5 Holt Park Shopping Centre,Holt Road,LS16 7SR", "lat": "53.85556300000000", "hygiene_rating": 0, "long": "-1.60601800000000"}}, {"pk": "322200", "model": "places.restaurant", "fields": {"rating": 0, "management_rating": 0, "name": "Alliance Pharmacy (Selby Road)", "structural_rating": 0, "address": "204 Selby Road,Osmondthorpe,LS15 0LF", "lat": "53.79622700000000", "hygiene_rating": 0, "long": "-1.46897100000000"}}, {"pk": "322082", "model": "places.restaurant", "fields": {"rating": 0, "management_rating": 0, "name": "Allied (Middleton) Pharmacy", "structural_rating": 0, "address": "20 Shelldrake Drive,Middleton,LS10 3NB", "lat": "53.74998800000000", "hygiene_rating": 0, "long": "-1.53500400000000"}}, {"pk": "542466", "model": "places.restaurant", "fields": {"rating": "4", "management_rating": "10", "name": "Allisons Sandwich Bar", "structural_rating": "0", "address": "34 Elland Road,Churwell,LS27 7SS", "lat": "53.76246500000000", "hygiene_rating": "10", "long": "-1.58701800000000"}}, {"pk": "321915", "model": "places.restaurant", "fields": {"rating": "5", "management_rating": "5", "name": "Allstars Roadside Cafe", "structural_rating": "5", "address": "Lowfields Road North,Holbeck,LS12 6BS", "lat": "53.78157000000000", "hygiene_rating": "5", "long": "-1.57335400000000"}}, {"pk": "321929", "model": "places.restaurant", "fields": {"rating": "5", "management_rating": "0", "name": "Ally's Outside Catering", "structural_rating": "5", "address": ",,", "lat": null, "hygiene_rating": "0", "long": null}}, {"pk": "322238", "model": "places.restaurant", "fields": {"rating": "5", "management_rating": "0", "name": "Al-Naseeb", "structural_rating": "5", "address": "211 Richardshaw Lane,Stanningley,LS28 6AA", "lat": "53.80323900000000", "hygiene_rating": "0", "long": "-1.66656000000000"}}, {"pk": "322517", "model": "places.restaurant", "fields": {"rating": 0, "management_rating": 0, "name": "Alpha Retail (Duty Free Ground Floor)", "structural_rating": 0, "address": "Leeds And Bradford Airport  ,Whitehouse Lane,LS19 7TU", "lat": "53.86922700000000", "hygiene_rating": 0, "long": "-1.65963400000000"}}, {"pk": "581784", "model": "places.restaurant", "fields": {"rating": "2", "management_rating": "10", "name": "Alqasr Cafe", "structural_rating": "15", "address": "264A Roundhay Road,Leeds,LS8 5RL", "lat": "53.81707300000000", "hygiene_rating": "5", "long": "-1.51640000000000"}}, {"pk": "467116", "model": "places.restaurant", "fields": {"rating": "4", "management_rating": "5", "name": "Alwoodley Community Centre", "structural_rating": "10", "address": "60 The Avenue,Alwoodley,LS17 7NZ", "lat": "53.85934900000000", "hygiene_rating": "5", "long": "-1.55492700000000"}}, {"pk": "467009", "model": "places.restaurant", "fields": {"rating": "5", "management_rating": "5", "name": "Alwoodley Cricket Club", "structural_rating": "5", "address": "King Lane,Moortown,LS17 5PR", "lat": "53.85703500000000", "hygiene_rating": "5", "long": "-1.56881700000000"}}, {"pk": "559024", "model": "places.restaurant", "fields": {"rating": "5", "management_rating": "5", "name": "Alwoodley Golf Club", "structural_rating": "5", "address": "Wigton Lane,Alwoodley,LS17 8SA", "lat": "53.86200500000000", "hygiene_rating": "0", "long": "-1.52582700000000"}}, {"pk": "467115", "model": "places.restaurant", "fields": {"rating": 0, "management_rating": 0, "name": "Alwoodley Park News", "structural_rating": 0, "address": "143 The Avenue,Alwoodley,LS17 7PA", "lat": "53.86126000000000", "hygiene_rating": 0, "long": "-1.55416200000000"}}, {"pk": "321529", "model": "places.restaurant", "fields": {"rating": "5", "management_rating": "5", "name": "Alwoodley Primary School", "structural_rating": "0", "address": "Cranmer Rise,Moortown,LS17 5HX", "lat": "53.85130900000000", "hygiene_rating": "0", "long": "-1.55609200000000"}}, {"pk": "576119", "model": "places.restaurant", "fields": {"rating": "2", "management_rating": "10", "name": "AM Express", "structural_rating": "10", "address": "Leeds And Bradford Airport,Whitehouse Lane,LS19 7TU", "lat": "53.86922700000000", "hygiene_rating": "15", "long": "-1.65963400000000"}}, {"pk": "631822", "model": "places.restaurant", "fields": {"rating": "1", "management_rating": "20", "name": "Amaans Kitchen", "structural_rating": "10", "address": "30 Chapel Hill,Morley,LS27 8JP", "lat": "53.74937100000000", "hygiene_rating": "10", "long": "-1.60085500000000"}}, {"pk": "320350", "model": "places.restaurant", "fields": {"rating": "5", "management_rating": "5", "name": "Amalfi Restaurant", "structural_rating": "5", "address": "49 Wortley Road,Lower Wortley,LS12 3HT", "lat": "53.79610100000000", "hygiene_rating": "5", "long": "-1.59857500000000"}}, {"pk": "467033", "model": "places.restaurant", "fields": {"rating": "3", "management_rating": "10", "name": "Amaranth Cricket Club", "structural_rating": "10", "address": "Sports Ground,Barnbow Lane,LS15 4LZ", "lat": "53.81950900000000", "hygiene_rating": "10", "long": "-1.40811500000000"}}, {"pk": "516121", "model": "places.restaurant", "fields": {"rating": "4", "management_rating": "0", "name": "Ambiente Tapas", "structural_rating": "10", "address": "Ground Floor Calls Landing,36 - 38 The Calls,LS2 7EW", "lat": "53.79488100000000", "hygiene_rating": "5", "long": "-1.53913800000000"}}, {"pk": "321363", "model": "places.restaurant", "fields": {"rating": "1", "management_rating": "20", "name": "American Sub", "structural_rating": "15", "address": "54A North Lane,Headingley,LS6 3HU", "lat": "53.81993300000000", "hygiene_rating": "15", "long": "-1.58150100000000"}}, {"pk": "631818", "model": "places.restaurant", "fields": {"rating": "5", "management_rating": "5", "name": "Amici", "structural_rating": "0", "address": "592 - 596 Harrogate Road,Moortown,LS17 8DP", "lat": "53.85555300000000", "hygiene_rating": "5", "long": "-1.53055200000000"}}, {"pk": "322003", "model": "places.restaurant", "fields": {"rating": "5", "management_rating": "0", "name": "Amigo (Chancellor Wing)", "structural_rating": "5", "address": "Unit 2 Chancellor Wing,St James Hospital,LS9 7TF", "lat": "53.80730500000000", "hygiene_rating": "0", "long": "-1.51909400000000"}}, {"pk": "322104", "model": "places.restaurant", "fields": {"rating": "5", "management_rating": "0", "name": "Amigo Shop (Bexley Wing)", "structural_rating": "0", "address": "Bexley Wing,St James Hospital,LS9 7TF", "lat": "53.80730500000000", "hygiene_rating": "0", "long": "-1.51909400000000"}}, {"pk": "322552", "model": "places.restaurant", "fields": {"rating": "5", "management_rating": "0", "name": "Amigo Store (Gledhow Wing)", "structural_rating": "0", "address": "Unit 12 Gledhow Wing,St James Hospital,LS9 7TF", "lat": "53.80730500000000", "hygiene_rating": "0", "long": "-1.51909400000000"}}, {"pk": "546096", "model": "places.restaurant", "fields": {"rating": "5", "management_rating": "5", "name": "Amigos", "structural_rating": "5", "address": "128 Dib Lane,Roundhay,LS8 3AY", "lat": "53.82310700000000", "hygiene_rating": "0", "long": "-1.48681500000000"}}, {"pk": "323391", "model": "places.restaurant", "fields": {"rating": "5", "management_rating": "5", "name": "Amigos (Jubilee Wing LGI)", "structural_rating": "0", "address": "Jubilee Wing Leeds General Infirmar,Clarendon Way,LS2 9NS", "lat": "53.80251600000000", "hygiene_rating": "0", "long": "-1.55446600000000"}}, {"pk": "375268", "model": "places.restaurant", "fields": {"rating": "5", "management_rating": "0", "name": "Amigos (Leeds) Ltd", "structural_rating": "5", "address": "68 - 70 Abbey Road,Kirkstall,LS5 3JG", "lat": "53.81917100000000", "hygiene_rating": "0", "long": "-1.60330600000000"}}, {"pk": "320936", "model": "places.restaurant", "fields": {"rating": "5", "management_rating": "0", "name": "Amigos (LGI)", "structural_rating": "0", "address": "Brotherton Wing,Leeds General Infirmary,LS1 3EX", "lat": "53.80145400000000", "hygiene_rating": "0", "long": "-1.55175900000000"}}, {"pk": "564074", "model": "places.restaurant", "fields": {"rating": "5", "management_rating": "5", "name": "AMT Coffee", "structural_rating": "0", "address": "10 South Concourse,City Station,LS1 4DT", "lat": "53.79417600000000", "hygiene_rating": "0", "long": "-1.54760200000000"}}, {"pk": "321015", "model": "places.restaurant", "fields": {"rating": "5", "management_rating": "5", "name": "Anand Sweets", "structural_rating": "5", "address": "109 Harehills Road,Harehills,LS8 5HS", "lat": "53.81277900000000", "hygiene_rating": "5", "long": "-1.51698100000000"}}, {"pk": "546071", "model": "places.restaurant", "fields": {"rating": "5", "management_rating": "5", "name": "Andos Sandwiches And Confectionery", "structural_rating": "5", "address": "28 Longroyd Street North,Beeston,LS11 5EY", "lat": "53.77863600000000", "hygiene_rating": "0", "long": "-1.54065200000000"}}, {"pk": "537092", "model": "places.restaurant", "fields": {"rating": "3", "management_rating": "10", "name": "Andrews Family Butchers", "structural_rating": "10", "address": "8 North Street,Wetherby,LS22 6NN", "lat": "53.92891300000000", "hygiene_rating": "10", "long": "-1.38524800000000"}}, {"pk": "454497", "model": "places.restaurant", "fields": {"rating": "5", "management_rating": "0", "name": "Angel Inn", "structural_rating": "5", "address": "Wakefield Road,Rothwell,LS26 0SF", "lat": "53.74788200000000", "hygiene_rating": "5", "long": "-1.50738400000000"}}, {"pk": "570319", "model": "places.restaurant", "fields": {"rating": "4", "management_rating": "10", "name": "Angela And Linda Hepworth", "structural_rating": "10", "address": ",,", "lat": null, "hygiene_rating": "0", "long": null}}, {"pk": "546090", "model": "places.restaurant", "fields": {"rating": "5", "management_rating": "5", "name": "Angelica And Crafthouse", "structural_rating": "0", "address": "70 Boar Lane,Leeds,LS1 6HW", "lat": "53.79614700000000", "hygiene_rating": "5", "long": "-1.54342100000000"}}, {"pk": "320346", "model": "places.restaurant", "fields": {"rating": "1", "management_rating": "20", "name": "Angelos Pizzas", "structural_rating": "15", "address": "28 Woodsley Road,Woodhouse,LS3 1DT", "lat": "53.80560500000000", "hygiene_rating": "10", "long": "-1.56849400000000"}}, {"pk": "321517", "model": "places.restaurant", "fields": {"rating": "5", "management_rating": "5", "name": "Angels Day Nursery", "structural_rating": "5", "address": "Church Hall,Stainbeck United Reformed Church,LS7 2PP", "lat": "53.83035100000000", "hygiene_rating": "5", "long": "-1.55660200000000"}}, {"pk": "467102", "model": "places.restaurant", "fields": {"rating": "5", "management_rating": "5", "name": "Anglers Club", "structural_rating": "5", "address": "Nippet Lane,Burmantofts,LS9 7TB", "lat": "53.80130300000000", "hygiene_rating": "5", "long": "-1.52411300000000"}}, {"pk": "323467", "model": "places.restaurant", "fields": {"rating": "3", "management_rating": "10", "name": "Anmol Cuisine", "structural_rating": "5", "address": "18 Bruntcliffe Road,Morley,LS27 0LQ", "lat": "53.74345600000000", "hygiene_rating": "10", "long": "-1.62285000000000"}}, {"pk": "321084", "model": "places.restaurant", "fields": {"rating": "1", "management_rating": "20", "name": "Annas Snack Bar", "structural_rating": "15", "address": "Leathley House,Butterley Street,LS10 1AW", "lat": "53.78828000000000", "hygiene_rating": "15", "long": "-1.53823900000000"}}, {"pk": "321372", "model": "places.restaurant", "fields": {"rating": "5", "management_rating": "5", "name": "Ann's Snack Box", "structural_rating": "5", "address": "3 Burton Road,Hunslet,LS11 5EQ", "lat": "53.77685500000000", "hygiene_rating": "5", "long": "-1.54267400000000"}}, {"pk": "320570", "model": "places.restaurant", "fields": {"rating": "1", "management_rating": "20", "name": "Anthonys Bread Shop", "structural_rating": "10", "address": "20 Main Street,Barwick In Elmet,LS15 4JQ", "lat": "53.83110000000000", "hygiene_rating": "10", "long": "-1.39471800000000"}}, {"pk": "321624", "model": "places.restaurant", "fields": {"rating": "4", "management_rating": "10", "name": "Anthony's Patisserie", "structural_rating": "5", "address": "Victoria Quarter,Queen Victoria Street,LS1 6BE", "lat": "53.79824100000000", "hygiene_rating": "0", "long": "-1.54106000000000"}}, {"pk": "405927", "model": "places.restaurant", "fields": {"rating": "5", "management_rating": "0", "name": "Apna Day Centre", "structural_rating": "0", "address": "Woodhouse Street,Woodhouse,LS6 2NS", "lat": "53.82451100000000", "hygiene_rating": "5", "long": "-1.57523000000000"}}, {"pk": "631825", "model": "places.restaurant", "fields": {"rating": "0", "management_rating": "20", "name": "Apna Dera", "structural_rating": "20", "address": "215A Roundhay Road,Leeds,LS8 4HS", "lat": "53.81701400000000", "hygiene_rating": "20", "long": "-1.51734300000000"}}, {"pk": "322648", "model": "places.restaurant", "fields": {"rating": "5", "management_rating": "0", "name": "Apna Naseeb", "structural_rating": "5", "address": "99 Swinnow Lane,Swinnow,LS13 4RH", "lat": "53.80052600000000", "hygiene_rating": "0", "long": "-1.64194000000000"}}, {"pk": "626765", "model": "places.restaurant", "fields": {"rating": "1", "management_rating": "20", "name": "Apollo Cafe (Travis Perkins)", "structural_rating": "0", "address": "Travis Perkins,Units 1 And 3 Apollo Buildings,LS12 4NL", "lat": "53.79255700000000", "hygiene_rating": "10", "long": "-1.59786500000000"}}, {"pk": "322449", "model": "places.restaurant", "fields": {"rating": "5", "management_rating": "5", "name": "Appetite", "structural_rating": "5", "address": "Unit 2 City Central,27 Wellington Street,LS1 4EA", "lat": "53.79618700000000", "hygiene_rating": "5", "long": "-1.55169400000000"}}, {"pk": "322470", "model": "places.restaurant", "fields": {"rating": "5", "management_rating": "5", "name": "Apple Vending And Catering Services", "structural_rating": "5", "address": "The Granary Building,1 Canal Wharf,LS11 5BB", "lat": "53.79273300000000", "hygiene_rating": "5", "long": "-1.54854300000000"}}, {"pk": "467308", "model": "places.restaurant", "fields": {"rating": "4", "management_rating": "10", "name": "Appletree Store", "structural_rating": "5", "address": "187A Whitehall Road,Drighlington,BD11 1BE", "lat": "53.75396700000000", "hygiene_rating": "5", "long": "-1.66992300000000"}}, {"pk": "631836", "model": "places.restaurant", "fields": {"rating": "5", "management_rating": "5", "name": "Appollo Fish And Chips", "structural_rating": "5", "address": "Albion Street,Morley,LS27 8DT", "lat": "53.74600100000000", "hygiene_rating": "0", "long": "-1.60094700000000"}}, {"pk": "321960", "model": "places.restaurant", "fields": {"rating": "5", "management_rating": "5", "name": "Arabian Horse", "structural_rating": "5", "address": "Main Street,Aberford,LS25 3AA", "lat": "53.83033000000000", "hygiene_rating": "5", "long": "-1.34243200000000"}}, {"pk": "555761", "model": "places.restaurant", "fields": {"rating": "3", "management_rating": "10", "name": "Arabian Nights Lounge", "structural_rating": "10", "address": "Unit 1 Right First Floor,11A Cherry Row,LS9 7LY", "lat": "53.80392900000000", "hygiene_rating": "10", "long": "-1.52913900000000"}}, {"pk": "322868", "model": "places.restaurant", "fields": {"rating": "4", "management_rating": "5", "name": "Aramark (Mercado)", "structural_rating": "10", "address": "Thornes Farm Way,Osmondthorpe,LS9 0AN", "lat": "53.78901100000000", "hygiene_rating": "0", "long": "-1.49641400000000"}}, {"pk": "321612", "model": "places.restaurant", "fields": {"rating": "5", "management_rating": "0", "name": "Aramark (Price Waterhouse Coopers)", "structural_rating": "0", "address": "Benson House,33 Wellington Street,LS1 4JP", "lat": "53.79657200000000", "hygiene_rating": "0", "long": "-1.55629000000000"}}, {"pk": "322047", "model": "places.restaurant", "fields": {"rating": "5", "management_rating": "5", "name": "Aramark (Yorkshire Bank)", "structural_rating": "5", "address": "Brunswick Point,Wade Lane,LS2 8NL", "lat": "53.80149000000000", "hygiene_rating": "5", "long": "-1.54210200000000"}}, {"pk": "321216", "model": "places.restaurant", "fields": {"rating": "4", "management_rating": "10", "name": "Arcadia Ale Wine Bar", "structural_rating": "0", "address": "34 - 35 Arndale Centre,Otley Road,LS6 2UE", "lat": "53.82219500000000", "hygiene_rating": "0", "long": "-1.57813700000000"}}, {"pk": "486684", "model": "places.restaurant", "fields": {"rating": "5", "management_rating": "5", "name": "Ardsley House", "structural_rating": "0", "address": "55A Royston Hill,East Ardsley,WF3 2HN", "lat": "53.71784600000000", "hygiene_rating": "5", "long": "-1.53735900000000"}}, {"pk": "322641", "model": "places.restaurant", "fields": {"rating": "3", "management_rating": "10", "name": "Argie Road Newsagents", "structural_rating": "5", "address": "44 - 46 Argie Road,Burley,LS4 2RD", "lat": "53.80885700000000", "hygiene_rating": "10", "long": "-1.58600000000000"}}, {"pk": "467288", "model": "places.restaurant", "fields": {"rating": 0, "management_rating": 0, "name": "Argos", "structural_rating": 0, "address": "45 Boroughgate,Otley,LS21 1AG", "lat": "53.90565900000000", "hygiene_rating": 0, "long": "-1.69116500000000"}}, {"pk": "356594", "model": "places.restaurant", "fields": {"rating": 0, "management_rating": 0, "name": "Argos", "structural_rating": 0, "address": "Unit 2 Broad Gate,The Headrow,LS1 8EQ", "lat": "53.79973700000000", "hygiene_rating": 0, "long": "-1.54439900000000"}}, {"pk": "467377", "model": "places.restaurant", "fields": {"rating": 0, "management_rating": 0, "name": "Argos", "structural_rating": 0, "address": "Unit MSU 8 White Rose Shopping Cent,Dewsbury Road,LS11 8LL", "lat": "53.75864500000000", "hygiene_rating": 0, "long": "-1.57423900000000"}}, {"pk": "321073", "model": "places.restaurant", "fields": {"rating": 0, "management_rating": 0, "name": "Argos Ltd (Colton)", "structural_rating": 0, "address": "9 Stile Hill Way,Colton,LS15 9JB", "lat": "53.79327200000000", "hygiene_rating": 0, "long": "-1.43397200000000"}}, {"pk": "580064", "model": "places.restaurant", "fields": {"rating": "3", "management_rating": "10", "name": "Arias", "structural_rating": "10", "address": "12 Bradford Road,Guiseley,LS20 8NH", "lat": "53.87567700000000", "hygiene_rating": "10", "long": "-1.72504500000000"}}, {"pk": "321082", "model": "places.restaurant", "fields": {"rating": "4", "management_rating": "5", "name": "Arkwrights Fish And Chips", "structural_rating": "10", "address": "5 - 7 Johnston Street,Woodhouse,LS6 2NG", "lat": "53.81521900000000", "hygiene_rating": "5", "long": "-1.55047300000000"}}, {"pk": "626747", "model": "places.restaurant", "fields": {"rating": "1", "management_rating": "20", "name": "Armitages Snack Factory", "structural_rating": "10", "address": "69 Domestic Street,Holbeck,LS11 9NS", "lat": "53.78578400000000", "hygiene_rating": "0", "long": "-1.56036500000000"}}, {"pk": "320227", "model": "places.restaurant", "fields": {"rating": "5", "management_rating": "0", "name": "Armley Conservative Club", "structural_rating": "5", "address": "Theaker Lane,Armley,LS12 3NU", "lat": "53.79859300000000", "hygiene_rating": "5", "long": "-1.59662300000000"}}, {"pk": "321952", "model": "places.restaurant", "fields": {"rating": "5", "management_rating": "5", "name": "Armley Convenience Store", "structural_rating": "5", "address": "57 - 59 Town Street,Armley,LS12 1XD", "lat": "53.79644500000000", "hygiene_rating": "5", "long": "-1.59140600000000"}}, {"pk": "319797", "model": "places.restaurant", "fields": {"rating": "4", "management_rating": "10", "name": "Armley Discount Store", "structural_rating": "5", "address": "81 - 83 Hall Lane,Armley,LS12 1QQ", "lat": "53.79512800000000", "hygiene_rating": "0", "long": "-1.58451100000000"}}, {"pk": "631839", "model": "places.restaurant", "fields": {"rating": "3", "management_rating": "10", "name": "Armley Food", "structural_rating": "5", "address": "76 Hall Lane,Armley,LS12 2BL", "lat": "53.79565000000000", "hygiene_rating": "10", "long": "-1.58235000000000"}}, {"pk": "553218", "model": "places.restaurant", "fields": {"rating": "4", "management_rating": "10", "name": "Armley Food Centre", "structural_rating": "0", "address": "30 Town Street,Armley,LS12 3AB", "lat": "53.79737400000000", "hygiene_rating": "10", "long": "-1.58959000000000"}}, {"pk": "320902", "model": "places.restaurant", "fields": {"rating": "5", "management_rating": "0", "name": "Armley Helping Hands", "structural_rating": "5", "address": "Strawberry Lane Community Centre,Strawberry Lane,LS12 1SF", "lat": "53.79382200000000", "hygiene_rating": "5", "long": "-1.58646700000000"}}, {"pk": "323579", "model": "places.restaurant", "fields": {"rating": "5", "management_rating": "5", "name": "Armley Leisure Centre Cafe Bar", "structural_rating": "5", "address": "Carr Crofts,Armley,LS12 3HB", "lat": "53.79591000000000", "hygiene_rating": "5", "long": "-1.59248900000000"}}, {"pk": "466895", "model": "places.restaurant", "fields": {"rating": "5", "management_rating": "5", "name": "Armley Liberal Club Ltd", "structural_rating": "5", "address": "1 Armley Lodge Road,Armley,LS12 2AT", "lat": "53.80052200000000", "hygiene_rating": "5", "long": "-1.58754000000000"}}, {"pk": "321772", "model": "places.restaurant", "fields": {"rating": "5", "management_rating": "5", "name": "Armley Service Station", "structural_rating": "0", "address": "120 Armley Road,Armley,LS12 2QN", "lat": "53.79883400000000", "hygiene_rating": "0", "long": "-1.57787000000000"}}, {"pk": "467129", "model": "places.restaurant", "fields": {"rating": "5", "management_rating": "5", "name": "Armley Stores", "structural_rating": "5", "address": "170 Town Street,Armley,LS12 3RF", "lat": "53.79803200000000", "hygiene_rating": "5", "long": "-1.60359700000000"}}, {"pk": "320773", "model": "places.restaurant", "fields": {"rating": "3", "management_rating": "10", "name": "Aroma (Tingley)", "structural_rating": "10", "address": "3 Syke Parade,Dewsbury Road,WF3 1LZ", "lat": "53.72537300000000", "hygiene_rating": "10", "long": "-1.58507700000000"}}, {"pk": "319784", "model": "places.restaurant", "fields": {"rating": "5", "management_rating": "0", "name": "Around The Clock", "structural_rating": "5", "address": "35 Great George Street,Leeds,LS1 3BB", "lat": "53.80094900000000", "hygiene_rating": "0", "long": "-1.55124900000000"}}, {"pk": "321096", "model": "places.restaurant", "fields": {"rating": "5", "management_rating": "5", "name": "Around The Clock (Victoria House)", "structural_rating": "5", "address": "Part Ground Floor Victoria House,143 - 145 The Headrow,LS1 5RL", "lat": "53.79939200000000", "hygiene_rating": "5", "long": "-1.54828900000000"}}, {"pk": "546103", "model": "places.restaurant", "fields": {"rating": "5", "management_rating": "5", "name": "Arrosti Coffee Shop", "structural_rating": "5", "address": "1 Church Walk,Leeds,LS2 7EG", "lat": "53.79581600000000", "hygiene_rating": "0", "long": "-1.53679000000000"}}, {"pk": "319525", "model": "places.restaurant", "fields": {"rating": "1", "management_rating": "20", "name": "Arthington Stores", "structural_rating": "10", "address": "15 Arthington Avenue,Hunslet,LS10 2LU", "lat": "53.77379400000000", "hygiene_rating": "15", "long": "-1.53665300000000"}}, {"pk": "323038", "model": "places.restaurant", "fields": {"rating": "5", "management_rating": "5", "name": "Artisan Bakery", "structural_rating": "0", "address": "9 North Lane,Headingley,LS6 3HG", "lat": "53.82089400000000", "hygiene_rating": "5", "long": "-1.57874200000000"}}, {"pk": "319620", "model": "places.restaurant", "fields": {"rating": "5", "management_rating": "5", "name": "Arts", "structural_rating": "5", "address": "42 Call Lane,Leeds,LS1 6DT", "lat": "53.79538400000000", "hygiene_rating": "0", "long": "-1.54133400000000"}}, {"pk": "323389", "model": "places.restaurant", "fields": {"rating": "5", "management_rating": "5", "name": "Arts And The Secret Garden", "structural_rating": "0", "address": "6 - 8 Weetwood Lane  ,Weetwood,LS16 5LS", "lat": "53.82774600000000", "hygiene_rating": "0", "long": "-1.58235000000000"}}, {"pk": "320036", "model": "places.restaurant", "fields": {"rating": "4", "management_rating": "10", "name": "Ascot Grange Hotel", "structural_rating": "5", "address": "126 - 128 Otley Road,Headingley,LS16 5JX", "lat": "53.82975000000000", "hygiene_rating": "5", "long": "-1.58479200000000"}}, {"pk": "321403", "model": "places.restaurant", "fields": {"rating": "4", "management_rating": "10", "name": "Ascot Off Licence", "structural_rating": "0", "address": "23 - 25 Ascot Terrace,Burmantofts,LS9 9JB", "lat": "53.79534500000000", "hygiene_rating": "5", "long": "-1.51763700000000"}}, {"pk": "553165", "model": "places.restaurant", "fields": {"rating": "5", "management_rating": "5", "name": "Asda (Beeston)", "structural_rating": "5", "address": "Old Lane,Beeston,LS11 8AG", "lat": "53.76583400000000", "hygiene_rating": "0", "long": "-1.56374400000000"}}, {"pk": "542444", "model": "places.restaurant", "fields": {"rating": "5", "management_rating": "5", "name": "Asda (Harehills)", "structural_rating": "5", "address": "Harehills Lane,Harehills,LS9 6DT", "lat": "53.80751000000000", "hygiene_rating": "5", "long": "-1.50768800000000"}}, {"pk": "320848", "model": "places.restaurant", "fields": {"rating": "5", "management_rating": "0", "name": "Asda (Holt Park)", "structural_rating": "0", "address": "Holt Road,Adel,LS16 7RY", "lat": "53.85620100000000", "hygiene_rating": "0", "long": "-1.60576900000000"}}, {"pk": "320375", "model": "places.restaurant", "fields": {"rating": "5", "management_rating": "0", "name": "Asda (Killingbeck)", "structural_rating": "5", "address": "Killingbeck Drive,Halton,LS14 6UF", "lat": "53.80506100000000", "hygiene_rating": "5", "long": "-1.48112800000000"}}, {"pk": "537083", "model": "places.restaurant", "fields": {"rating": "5", "management_rating": "5", "name": "Asda (Kirkstall Road)", "structural_rating": "0", "address": "385 Kirkstall Road,Burley,LS4 2EZ", "lat": "53.80714600000000", "hygiene_rating": "5", "long": "-1.58755100000000"}}, {"pk": "550333", "model": "places.restaurant", "fields": {"rating": "5", "management_rating": "5", "name": "Asda (Meanwood)", "structural_rating": "5", "address": "34 Green Road,Meanwood,LS6 4JP", "lat": "53.82918500000000", "hygiene_rating": "0", "long": "-1.56717300000000"}}, {"pk": "320846", "model": "places.restaurant", "fields": {"rating": "5", "management_rating": "5", "name": "Asda (Morley)", "structural_rating": "5", "address": "Howley Park Road,Morley,LS27 0BN", "lat": "53.73222200000000", "hygiene_rating": "5", "long": "-1.60638300000000"}}, {"pk": "320461", "model": "places.restaurant", "fields": {"rating": "5", "management_rating": "0", "name": "Asda (Owlcotes Centre)", "structural_rating": "5", "address": "Owlcotes Centre,Stanningley By-Pass,LS28 6AR", "lat": "53.80376500000000", "hygiene_rating": "5", "long": "-1.67141500000000"}}, {"pk": "517544", "model": "places.restaurant", "fields": {"rating": "5", "management_rating": "0", "name": "Asda (Wortley)", "structural_rating": "5", "address": "Oldfield Lane,Wortley,LS12 4BR", "lat": "53.78917300000000", "hygiene_rating": "0", "long": "-1.58573900000000"}}, {"pk": "321563", "model": "places.restaurant", "fields": {"rating": "5", "management_rating": "5", "name": "Asda Living", "structural_rating": "0", "address": "Unit 12 Crown Point Retail Park,Junction Street,LS10 1ET", "lat": "53.78877400000000", "hygiene_rating": "0", "long": "-1.54054100000000"}}, {"pk": "580058", "model": "places.restaurant", "fields": {"rating": "5", "management_rating": "5", "name": "Asda Living", "structural_rating": "0", "address": "Unit 3A  West Side Retail Park,Leeds Road,LS20 9NE", "lat": "53.86859600000000", "hygiene_rating": "0", "long": "-1.70310100000000"}}, {"pk": "537131", "model": "places.restaurant", "fields": {"rating": "5", "management_rating": "5", "name": "Asda Living Cafe", "structural_rating": "0", "address": "Unit 3A West Side Retail Park,Leeds Road,LS20 9NE", "lat": "53.86859600000000", "hygiene_rating": "5", "long": "-1.70310100000000"}}, {"pk": "589871", "model": "places.restaurant", "fields": {"rating": "5", "management_rating": "0", "name": "Asharun Ltd", "structural_rating": "0", "address": "Hand Picked Hall,16 - 22 Grand Arcade,LS1 6PG", "lat": "53.80026100000000", "hygiene_rating": "5", "long": "-1.54041500000000"}}, {"pk": "322212", "model": "places.restaurant", "fields": {"rating": "4", "management_rating": "10", "name": "Ashcroft House", "structural_rating": "5", "address": "18 Leeds Road,Bramhope,LS16 9BQ", "lat": "53.88445800000000", "hygiene_rating": "5", "long": "-1.61670000000000"}}, {"pk": "320614", "model": "places.restaurant", "fields": {"rating": "5", "management_rating": "5", "name": "Ashfield Nursing Home", "structural_rating": "5", "address": "3 Ashfield,Wetherby,LS22 7TF", "lat": "53.93400900000000", "hygiene_rating": "0", "long": "-1.38186700000000"}}, {"pk": "322158", "model": "places.restaurant", "fields": {"rating": "5", "management_rating": "5", "name": "Ashlands Nursing Home", "structural_rating": "0", "address": "41 Main Street,Methley,LS26 9JE", "lat": "53.74010800000000", "hygiene_rating": "0", "long": "-1.39739000000000"}}, {"pk": "319526", "model": "places.restaurant", "fields": {"rating": "4", "management_rating": "10", "name": "Ashley Road Off Licence", "structural_rating": "5", "address": "20 Ashley Road,Harehills,LS9 7AJ", "lat": "53.81063900000000", "hygiene_rating": "5", "long": "-1.51237400000000"}}, {"pk": "319527", "model": "places.restaurant", "fields": {"rating": "4", "management_rating": "10", "name": "Ashley Stores", "structural_rating": "5", "address": "25 Ashley Road,Harehills,LS9 7AB", "lat": "53.80901700000000", "hygiene_rating": "5", "long": "-1.51587000000000"}}, {"pk": "322781", "model": "places.restaurant", "fields": {"rating": "4", "management_rating": "10", "name": "Asia Express", "structural_rating": "0", "address": "110 Vicar Lane,Leeds,LS2 7NL", "lat": "53.79972600000000", "hygiene_rating": "5", "long": "-1.53935800000000"}}, {"pk": "321413", "model": "places.restaurant", "fields": {"rating": "5", "management_rating": "0", "name": "Ask", "structural_rating": "5", "address": "1 Market Place,Wetherby,LS22 6LQ", "lat": "53.92783500000000", "hygiene_rating": "0", "long": "-1.38713700000000"}}, {"pk": "504559", "model": "places.restaurant", "fields": {"rating": "5", "management_rating": "0", "name": "Ask Italian", "structural_rating": "5", "address": "38 North Lane,Headingley,LS6 3HU", "lat": "53.81993300000000", "hygiene_rating": "5", "long": "-1.58150100000000"}}, {"pk": "537143", "model": "places.restaurant", "fields": {"rating": "1", "management_rating": "20", "name": "Asmera Cafe", "structural_rating": "20", "address": "9C Cherry Row,Burmantofts,LS9 7LY", "lat": "53.80392900000000", "hygiene_rating": "10", "long": "-1.52913900000000"}}, {"pk": "321998", "model": "places.restaurant", "fields": {"rating": "5", "management_rating": "5", "name": "Asquith Nurseries  (Moortown)", "structural_rating": "5", "address": "David Lloyd Leisure,Tongue Lane,LS6 4QW", "lat": "53.84363800000000", "hygiene_rating": "0", "long": "-1.55023000000000"}}, {"pk": "320866", "model": "places.restaurant", "fields": {"rating": "5", "management_rating": "0", "name": "Asquith Nurseries (West Lea Park)", "structural_rating": "5", "address": "Lowry Road,West Ardsley,WF3 1TW", "lat": "53.72849300000000", "hygiene_rating": "0", "long": "-1.57010200000000"}}, {"pk": "542474", "model": "places.restaurant", "fields": {"rating": "2", "management_rating": "10", "name": "Asquiths", "structural_rating": "15", "address": "Commercial Street,Morley,LS27 8HX", "lat": "53.74712700000000", "hygiene_rating": "15", "long": "-1.60171000000000"}}, {"pk": "322186", "model": "places.restaurant", "fields": {"rating": 0, "management_rating": 0, "name": "Assura Pharmacy Park Edge", "structural_rating": 0, "address": "Park Edge Medical Centre,43 Asket Drive,LS14 1HX", "lat": "53.82552000000000", "hygiene_rating": 0, "long": "-1.48367100000000"}}, {"pk": "322816", "model": "places.restaurant", "fields": {"rating": "5", "management_rating": "5", "name": "Atkinson Court Care Home", "structural_rating": "0", "address": "39 Ings Road,Cross Green,LS9 9EJ", "lat": "53.79770300000000", "hygiene_rating": "5", "long": "-1.50092500000000"}}, {"pk": "320177", "model": "places.restaurant", "fields": {"rating": "5", "management_rating": "0", "name": "Atlantis Fish And Chip Shop", "structural_rating": "0", "address": "298 Harrogate Road,Moortown,LS17 6LY", "lat": "53.83897900000000", "hygiene_rating": "0", "long": "-1.53526600000000"}}, {"pk": "321479", "model": "places.restaurant", "fields": {"rating": "4", "management_rating": "10", "name": "Aunty Pheby Foods", "structural_rating": "5", "address": "25 Compton Road,Burmantofts,LS9 7BJ", "lat": "53.80789500000000", "hygiene_rating": "0", "long": "-1.51166200000000"}}, {"pk": "546085", "model": "places.restaurant", "fields": {"rating": "4", "management_rating": "10", "name": "Aunty P's", "structural_rating": "0", "address": ",,", "lat": null, "hygiene_rating": "10", "long": null}}, {"pk": "537089", "model": "places.restaurant", "fields": {"rating": "3", "management_rating": "10", "name": "Avalon Guest House", "structural_rating": "10", "address": "132 Woodsley Road,Woodhouse,LS2 9LZ", "lat": "53.80655100000000", "hygiene_rating": "5", "long": "-1.56169700000000"}}, {"pk": "467076", "model": "places.restaurant", "fields": {"rating": "5", "management_rating": "5", "name": "Avtar Wine And Spirits", "structural_rating": "5", "address": "11 Raven Road,Headingley,LS6 1DA", "lat": "53.81568000000000", "hygiene_rating": "5", "long": "-1.57323600000000"}}, {"pk": "542478", "model": "places.restaurant", "fields": {"rating": "3", "management_rating": "10", "name": "Aziz Caribbean Store", "structural_rating": "5", "address": "83 Markham Avenue,Chapeltown,LS8 4JD", "lat": "53.81796200000000", "hygiene_rating": "10", "long": "-1.51836500000000"}}, {"pk": "323332", "model": "places.restaurant", "fields": {"rating": "3", "management_rating": "10", "name": "Azucar", "structural_rating": "10", "address": "5A Brewery Place,Leeds,LS10 1NE", "lat": "53.79393200000000", "hygiene_rating": "5", "long": "-1.53775200000000"}}, {"pk": "322653", "model": "places.restaurant", "fields": {"rating": "3", "management_rating": "10", "name": "B And J Callard", "structural_rating": "5", "address": "Stall 15 Area 1904 Kirkgate Market ,Kirkgate,", "lat": null, "hygiene_rating": "10", "long": null}}, {"pk": "322420", "model": "places.restaurant", "fields": {"rating": 0, "management_rating": 0, "name": "B And M Bargains", "structural_rating": 0, "address": "18 Church Lane,Pudsey,LS28 7TY", "lat": "53.79578100000000", "hygiene_rating": 0, "long": "-1.66388700000000"}}, {"pk": "323278", "model": "places.restaurant", "fields": {"rating": "3", "management_rating": "5", "name": "B And M Bargains", "structural_rating": "10", "address": "3A Middleton District Centre,Ring Road Middleton,LS10 4AX", "lat": "53.74861500000000", "hygiene_rating": "10", "long": "-1.53570200000000"}}, {"pk": "467436", "model": "places.restaurant", "fields": {"rating": "5", "management_rating": "5", "name": "B And M Bargains", "structural_rating": "5", "address": "Peel Street,Morley,LS27 8AG", "lat": "53.74449900000000", "hygiene_rating": "5", "long": "-1.59795900000000"}}, {"pk": "322073", "model": "places.restaurant", "fields": {"rating": "5", "management_rating": "0", "name": "B And M Bargains", "structural_rating": "5", "address": "Unit B Torre Lane,Burmantofts,LS9 6TN", "lat": "53.80032900000000", "hygiene_rating": "0", "long": "-1.50566100000000"}}, {"pk": "319804", "model": "places.restaurant", "fields": {"rating": "3", "management_rating": "10", "name": "B And M Newsagents", "structural_rating": "10", "address": "101 Harehills Lane,Harehills,LS8 4DN", "lat": "53.81953400000000", "hygiene_rating": "5", "long": "-1.51814900000000"}}, {"pk": "467200", "model": "places.restaurant", "fields": {"rating": "5", "management_rating": "5", "name": "B And V Dhand News", "structural_rating": "5", "address": "10 Tyersal Road,Bradford,BD4 8ET", "lat": "53.79044400000000", "hygiene_rating": "5", "long": "-1.70582400000000"}}, {"pk": "319823", "model": "places.restaurant", "fields": {"rating": "5", "management_rating": "0", "name": "B Knaggs", "structural_rating": "5", "address": "143 Harehills Road,Harehills,LS8 5BW", "lat": "53.80946200000000", "hygiene_rating": "5", "long": "-1.51688300000000"}}, {"pk": "319660", "model": "places.restaurant", "fields": {"rating": "4", "management_rating": "10", "name": "B R Vickers And Sons Ltd", "structural_rating": "0", "address": "Airedale Mills,Clarence Road,LS10 1ND", "lat": "53.78757000000000", "hygiene_rating": "5", "long": "-1.52654500000000"}}, {"pk": "516116", "model": "places.restaurant", "fields": {"rating": "5", "management_rating": "0", "name": "Baa Bar", "structural_rating": "0", "address": "43-51 Cookridge Street,Leeds,LS2 3AW", "lat": "53.80186100000000", "hygiene_rating": "0", "long": "-1.54758000000000"}}, {"pk": "321342", "model": "places.restaurant", "fields": {"rating": "5", "management_rating": "5", "name": "Baan Thai", "structural_rating": "5", "address": "51D Commercial Street,Morley,LS27 8AG", "lat": "53.74449900000000", "hygiene_rating": "5", "long": "-1.59795900000000"}}, {"pk": "323085", "model": "places.restaurant", "fields": {"rating": "3", "management_rating": "10", "name": "Baby Jupiter", "structural_rating": "10", "address": "Basement,11 York Place,LS1 2DS", "lat": "53.79686200000000", "hygiene_rating": "10", "long": "-1.55209700000000"}}, {"pk": "321033", "model": "places.restaurant", "fields": {"rating": 0, "management_rating": 0, "name": "Back Lane Stables", "structural_rating": 0, "address": "Back Lane,Farnley,LS12 5HH", "lat": "53.78257400000000", "hygiene_rating": 0, "long": "-1.63517200000000"}}, {"pk": "537078", "model": "places.restaurant", "fields": {"rating": "4", "management_rating": "5", "name": "Bad Apples Bar", "structural_rating": "5", "address": "7 Call Lane,Leeds,LS1 7DH", "lat": "53.79630300000000", "hygiene_rating": "10", "long": "-1.53970000000000"}}, {"pk": "321438", "model": "places.restaurant", "fields": {"rating": "5", "management_rating": "5", "name": "Bagel Nash", "structural_rating": "0", "address": "Unit 1 Carlton Tower,34 St Pauls Street,LS1 2QB", "lat": "53.79868600000000", "hygiene_rating": "5", "long": "-1.55415700000000"}}, {"pk": "321120", "model": "places.restaurant", "fields": {"rating": "5", "management_rating": "5", "name": "Bagel Nash (City Station)", "structural_rating": "5", "address": "Unit 9 31 North Concourse,City Station,LS1 4DY", "lat": "53.79417600000000", "hygiene_rating": "5", "long": "-1.54760200000000"}}, {"pk": "322069", "model": "places.restaurant", "fields": {"rating": "5", "management_rating": "0", "name": "Bagel Nash (The Light)", "structural_rating": "5", "address": "5 The Light,The Headrow,LS1 8TL", "lat": "53.80005600000000", "hygiene_rating": "0", "long": "-1.54565600000000"}}, {"pk": "321176", "model": "places.restaurant", "fields": {"rating": "4", "management_rating": "5", "name": "Bagel Nash (Thorntons Arcade)", "structural_rating": "10", "address": "8 Thorntons Arcade,Leeds,LS1 6LQ", "lat": "53.79862500000000", "hygiene_rating": "5", "long": "-1.54275600000000"}}, {"pk": "322145", "model": "places.restaurant", "fields": {"rating": "5", "management_rating": "5", "name": "Bagel Nash (Victoria Quarter)", "structural_rating": "5", "address": "Kiosk 2 Victoria Quarter,Queen Victoria Street,LS1 6BE", "lat": "53.79824100000000", "hygiene_rating": "0", "long": "-1.54106000000000"}}, {"pk": "322135", "model": "places.restaurant", "fields": {"rating": "5", "management_rating": "5", "name": "Bagel Nash (White Rose)", "structural_rating": "0", "address": "Unit K10 White Rose Shopping Centre,Dewsbury Road,LS11 8LL", "lat": "53.75864500000000", "hygiene_rating": "5", "long": "-1.57423900000000"}}, {"pk": "322137", "model": "places.restaurant", "fields": {"rating": "5", "management_rating": "5", "name": "Baghdad", "structural_rating": "0", "address": "12 Harehills Road,Harehills,LS8 5PB", "lat": "53.81411100000000", "hygiene_rating": "0", "long": "-1.51755800000000"}}, {"pk": "320167", "model": "places.restaurant", "fields": {"rating": "3", "management_rating": "10", "name": "Bahi Supermarket", "structural_rating": "10", "address": "14 - 16 Stainbeck Avenue,Meanwood,LS7 2PA", "lat": "53.82821600000000", "hygiene_rating": "5", "long": "-1.56531500000000"}}, {"pk": "320321", "model": "places.restaurant", "fields": {"rating": "4", "management_rating": "5", "name": "Bakery 164", "structural_rating": "10", "address": "164 Woodhouse Lane,Woodhouse,LS2 9HB", "lat": "53.80837600000000", "hygiene_rating": "5", "long": "-1.55205000000000"}}, {"pk": "323628", "model": "places.restaurant", "fields": {"rating": "4", "management_rating": "10", "name": "Bal Newsagent", "structural_rating": "0", "address": "434 Dewsbury Road,Hunslet,LS11 7LJ", "lat": "53.76474800000000", "hygiene_rating": "0", "long": "-1.56167700000000"}}, {"pk": "323299", "model": "places.restaurant", "fields": {"rating": "2", "management_rating": "10", "name": "Balal Meat And Poultry", "structural_rating": "15", "address": "272 Tempest Road,Beeston,LS11 7DH", "lat": "53.77235700000000", "hygiene_rating": "0", "long": "-1.55090100000000"}}, {"pk": "321627", "model": "places.restaurant", "fields": {"rating": "4", "management_rating": "5", "name": "Balti King", "structural_rating": "10", "address": "69A Raglan Road,Woodhouse,LS2 9DZ", "lat": "53.81091600000000", "hygiene_rating": "5", "long": "-1.55603200000000"}}, {"pk": "323546", "model": "places.restaurant", "fields": {"rating": "1", "management_rating": "20", "name": "Bamboo Takeaway", "structural_rating": "10", "address": "257 Harehills Lane,Harehills,LS8 3RG", "lat": "53.81130000000000", "hygiene_rating": "15", "long": "-1.51145500000000"}}, {"pk": "322059", "model": "places.restaurant", "fields": {"rating": "1", "management_rating": "20", "name": "Bangers And Baps Cafe", "structural_rating": "10", "address": "10 Wakefield Road,Hunslet,LS10 3DJ", "lat": "53.77203600000000", "hygiene_rating": "5", "long": "-1.51694800000000"}}, {"pk": "589880", "model": "places.restaurant", "fields": {"rating": "1", "management_rating": "20", "name": "Bangkok Cafe", "structural_rating": "5", "address": "12 Hyde Park Corner,Woodhouse Lane,LS6 1AF", "lat": "53.81451400000000", "hygiene_rating": "15", "long": "-1.56161400000000"}}, {"pk": "551531", "model": "places.restaurant", "fields": {"rating": "5", "management_rating": "5", "name": "Bank Top Stores", "structural_rating": "0", "address": "Wetherby Road,Bardsey,LS17 9BA", "lat": "53.89002400000000", "hygiene_rating": "0", "long": "-1.44083700000000"}}, {"pk": "320550", "model": "places.restaurant", "fields": {"rating": "3", "management_rating": "10", "name": "Bar 166 And Bistro", "structural_rating": "5", "address": "166 Town Street,Horsforth,LS18 4AQ", "lat": "53.84075600000000", "hygiene_rating": "10", "long": "-1.63618700000000"}}, {"pk": "322563", "model": "places.restaurant", "fields": {"rating": "5", "management_rating": "5", "name": "Bar 4", "structural_rating": "5", "address": "4 Sovereign Place,Leeds,LS1 4SP", "lat": "53.79425100000000", "hygiene_rating": "0", "long": "-1.54612800000000"}}, {"pk": "321460", "model": "places.restaurant", "fields": {"rating": "3", "management_rating": "10", "name": "Bar 62", "structural_rating": "10", "address": "62 Town Street,Horsforth,LS18 4AP", "lat": "53.83872500000000", "hygiene_rating": "5", "long": "-1.63918300000000"}}, {"pk": "319585", "model": "places.restaurant", "fields": {"rating": "2", "management_rating": "0", "name": "Bar Fibre", "structural_rating": "15", "address": "168 - 169 Briggate,Leeds,LS1 6LY", "lat": "53.79534200000000", "hygiene_rating": "10", "long": "-1.54223000000000"}}, {"pk": "467430", "model": "places.restaurant", "fields": {"rating": "5", "management_rating": "5", "name": "Bar Surburban", "structural_rating": "5", "address": "19 Bridge Street,Otley,LS21 1BQ", "lat": "53.90701400000000", "hygiene_rating": "5", "long": "-1.69387900000000"}}, {"pk": "320630", "model": "places.restaurant", "fields": {"rating": "4", "management_rating": "10", "name": "Bar THR3", "structural_rating": "10", "address": "Market Place,Wetherby,LS22 6LQ", "lat": "53.92783500000000", "hygiene_rating": "0", "long": "-1.38713700000000"}}, {"pk": "322679", "model": "places.restaurant", "fields": {"rating": "5", "management_rating": "5", "name": "Baracoa", "structural_rating": "0", "address": "64 - 68 Call Lane,Leeds,LS1 6DT", "lat": "53.79538400000000", "hygiene_rating": "5", "long": "-1.54133400000000"}}, {"pk": "322152", "model": "places.restaurant", "fields": {"rating": "5", "management_rating": "5", "name": "Baraka Coffee House", "structural_rating": "5", "address": "40 Main Street,Garforth,LS25 1AA", "lat": "53.79486200000000", "hygiene_rating": "5", "long": "-1.38801300000000"}}, {"pk": "322925", "model": "places.restaurant", "fields": {"rating": "4", "management_rating": "10", "name": "Baraka Express (Garforth Library)", "structural_rating": "0", "address": "Lidgett Lane,Garforth,LS25 1EH", "lat": "53.79123200000000", "hygiene_rating": "5", "long": "-1.38833900000000"}}, {"pk": "626752", "model": "places.restaurant", "fields": {"rating": "3", "management_rating": "10", "name": "Baraka Fish Bazar", "structural_rating": "10", "address": "229 Roundhay Road,Leeds,LS8 4HS", "lat": "53.81701400000000", "hygiene_rating": "10", "long": "-1.51734300000000"}}, {"pk": "564065", "model": "places.restaurant", "fields": {"rating": "5", "management_rating": "5", "name": "Barburrito", "structural_rating": "5", "address": "61 Boar Lane,Leeds,LS1 6HW", "lat": "53.79597100000000", "hygiene_rating": "5", "long": "-1.54459200000000"}}, {"pk": "322884", "model": "places.restaurant", "fields": {"rating": "5", "management_rating": "5", "name": "Barburrito", "structural_rating": "0", "address": "62 The Headrow,Leeds,LS1 8EQ", "lat": "53.79973700000000", "hygiene_rating": "0", "long": "-1.54439900000000"}}, {"pk": "415517", "model": "places.restaurant", "fields": {"rating": "3", "management_rating": "10", "name": "Barcode", "structural_rating": "10", "address": "1A Lowtown,Pudsey,LS28 7BQ", "lat": "53.79703100000000", "hygiene_rating": "5", "long": "-1.66117400000000"}}, {"pk": "320817", "model": "places.restaurant", "fields": {"rating": "4", "management_rating": "10", "name": "Bardsey Sports Club", "structural_rating": "5", "address": "Sports Ground At Keswick Lane  ,Bardsey,LS17 9AQ", "lat": "53.89043400000000", "hygiene_rating": "5", "long": "-1.44197300000000"}}, {"pk": "467014", "model": "places.restaurant", "fields": {"rating": "5", "management_rating": "5", "name": "Bargain Booze", "structural_rating": "5", "address": "154 - 160 Kirkstall Hill,Kirkstall,LS4 2SX", "lat": "53.81396300000000", "hygiene_rating": "5", "long": "-1.59137200000000"}}, {"pk": "322485", "model": "places.restaurant", "fields": {"rating": "4", "management_rating": "10", "name": "Bargain Booze", "structural_rating": "5", "address": "49 Cardinal Road,Beeston,LS11 8EY", "lat": "53.76548700000000", "hygiene_rating": "0", "long": "-1.56729700000000"}}, {"pk": "550355", "model": "places.restaurant", "fields": {"rating": "5", "management_rating": "5", "name": "Bargain Booze", "structural_rating": "5", "address": "80 Galloway Lane,Stanningley,LS28 8LE", "lat": "53.80090200000000", "hygiene_rating": "0", "long": "-1.69002100000000"}}, {"pk": "467495", "model": "places.restaurant", "fields": {"rating": "4", "management_rating": "0", "name": "Bargain Booze", "structural_rating": "10", "address": "GH Projects Yorkshire Ltd,Ground Floor,LS3 1JX", "lat": "53.80288200000000", "hygiene_rating": "10", "long": "-1.56603200000000"}}, {"pk": "322660", "model": "places.restaurant", "fields": {"rating": "4", "management_rating": "10", "name": "Bargain Booze (Kippax)", "structural_rating": "0", "address": "7 Cross Hills,Kippax,LS25 7JP", "lat": "53.76670400000000", "hygiene_rating": "5", "long": "-1.37100600000000"}}, {"pk": "322445", "model": "places.restaurant", "fields": {"rating": "3", "management_rating": "10", "name": "Bargain Booze Plus", "structural_rating": "10", "address": "80 Town Street,Armley,LS12 3AA", "lat": "53.79675200000000", "hygiene_rating": "5", "long": "-1.59157000000000"}}, {"pk": "323501", "model": "places.restaurant", "fields": {"rating": 0, "management_rating": 0, "name": "Bargain Brands", "structural_rating": 0, "address": "31 North Lane,Headingley,LS6 3HW", "lat": "53.81996700000000", "hygiene_rating": 0, "long": "-1.58090900000000"}}, {"pk": "321632", "model": "places.restaurant", "fields": {"rating": "5", "management_rating": "5", "name": "Barkat Continental Foods", "structural_rating": "5", "address": "98 - 100 Lady Pit Lane,Beeston,LS11 6DP", "lat": "53.77829800000000", "hygiene_rating": "5", "long": "-1.54868300000000"}}, {"pk": "319537", "model": "places.restaurant", "fields": {"rating": "4", "management_rating": "10", "name": "Barkly News", "structural_rating": "0", "address": "101 Barkly Road,Cross Flatts,LS11 7EN", "lat": "53.76906400000000", "hygiene_rating": "0", "long": "-1.55973500000000"}}, {"pk": "320261", "model": "places.restaurant", "fields": {"rating": "5", "management_rating": "0", "name": "Barley Mow Inn", "structural_rating": "5", "address": "Town Street,Bramley,LS13 3EN", "lat": "53.80635700000000", "hygiene_rating": "0", "long": "-1.62366800000000"}}, {"pk": "322093", "model": "places.restaurant", "fields": {"rating": "5", "management_rating": "5", "name": "Barnardos Yorkshire (Willow Young Carers Service)", "structural_rating": "5", "address": "Basement,Leeds And District Society Of Angle,LS9 7TB", "lat": "53.80130300000000", "hygiene_rating": "5", "long": "-1.52411300000000"}}, {"pk": "319951", "model": "places.restaurant", "fields": {"rating": "4", "management_rating": "10", "name": "Barnbow Social Club", "structural_rating": "5", "address": "Manston Lane,Cross Gates,LS15 8ST", "lat": "53.80671300000000", "hygiene_rating": "5", "long": "-1.43488400000000"}}, {"pk": "467113", "model": "places.restaurant", "fields": {"rating": 0, "management_rating": 0, "name": "Barots Newsagents And General", "structural_rating": 0, "address": "2 Tempest Road,Beeston,LS11 7AW", "lat": "53.77659500000000", "hygiene_rating": 0, "long": "-1.55474000000000"}}, {"pk": "321577", "model": "places.restaurant", "fields": {"rating": "5", "management_rating": "5", "name": "Barretts", "structural_rating": "5", "address": "254A Tinshill Road,Cookridge,LS16 7BT", "lat": "53.84888700000000", "hygiene_rating": "5", "long": "-1.62907900000000"}}, {"pk": "611323", "model": "places.restaurant", "fields": {"rating": "1", "management_rating": "20", "name": "Barrons", "structural_rating": "15", "address": "20 Pepper Road,Hunslet,LS10 2EU", "lat": "53.77208300000000", "hygiene_rating": "15", "long": "-1.52189400000000"}}, {"pk": "322782", "model": "places.restaurant", "fields": {"rating": "5", "management_rating": "0", "name": "Barry's Post Office And Supermarket", "structural_rating": "0", "address": "137 - 139 Halton Moor Avenue,Halton,LS9 0HB", "lat": "53.79781900000000", "hygiene_rating": "0", "long": "-1.48580200000000"}}, {"pk": "322341", "model": "places.restaurant", "fields": {"rating": "2", "management_rating": "10", "name": "Bartez Cafe", "structural_rating": "15", "address": "3 Park Square,Pudsey,LS28 7RG", "lat": "53.79536700000000", "hygiene_rating": "10", "long": "-1.66382900000000"}}, {"pk": "319540", "model": "places.restaurant", "fields": {"rating": "4", "management_rating": "10", "name": "Barton Stores", "structural_rating": "5", "address": "32 Barton Grove,Beeston,LS11 8TW", "lat": "53.77974900000000", "hygiene_rating": "0", "long": "-1.55701400000000"}}, {"pk": "321512", "model": "places.restaurant", "fields": {"rating": 0, "management_rating": 0, "name": "Barwick Mother And Toddler Group", "structural_rating": 0, "address": "Village Hall,Chapel Lane,LS15 4HL", "lat": "53.82981800000000", "hygiene_rating": 0, "long": "-1.39014800000000"}}, {"pk": "320568", "model": "places.restaurant", "fields": {"rating": "4", "management_rating": "10", "name": "Barwick Stores", "structural_rating": "0", "address": "4 - 6 Main Street,Barwick In Elmet,LS15 4JQ", "lat": "53.83110000000000", "hygiene_rating": "0", "long": "-1.39471800000000"}}, {"pk": "323116", "model": "places.restaurant", "fields": {"rating": "4", "management_rating": "10", "name": "Basement Complex", "structural_rating": "0", "address": "7 Heatons Court,Leeds,LS1 4LJ", "lat": "53.79471600000000", "hygiene_rating": "10", "long": "-1.54296600000000"}}, {"pk": "321233", "model": "places.restaurant", "fields": {"rating": 0, "management_rating": 0, "name": "Baskind Chemist", "structural_rating": 0, "address": "6 Stainbeck Lane,Meanwood,LS7 3QY", "lat": "53.82908100000000", "hygiene_rating": 0, "long": "-1.53935600000000"}}, {"pk": "466931", "model": "places.restaurant", "fields": {"rating": 0, "management_rating": 0, "name": "Bassan Off Licence", "structural_rating": 0, "address": "36 Cedar Avenue,Armley,LS12 1TP", "lat": "53.79473700000000", "hygiene_rating": 0, "long": "-1.59107300000000"}}, {"pk": "322369", "model": "places.restaurant", "fields": {"rating": "1", "management_rating": "20", "name": "Batleys Cash And Carry", "structural_rating": "15", "address": "Batleys Cash And Carry Warehouse,Skelton Grange Road,LS10 1RZ", "lat": "53.77262700000000", "hygiene_rating": "15", "long": "-1.50541000000000"}}, {"pk": "626767", "model": "places.restaurant", "fields": {"rating": "5", "management_rating": "0", "name": "Baxter Storey (BBC Diner)", "structural_rating": "0", "address": "BBC,2 St Peters Square,LS9 8AH", "lat": "53.79752600000000", "hygiene_rating": "0", "long": "-1.53290000000000"}}, {"pk": "321578", "model": "places.restaurant", "fields": {"rating": "5", "management_rating": "5", "name": "Baxter Storey (Yorkshire TV Kirkstall Road)", "structural_rating": "5", "address": "Yorkshire Television Studios,Kirkstall Road,LS3 1JS", "lat": "53.80311400000000", "hygiene_rating": "0", "long": "-1.57055400000000"}}, {"pk": "322144", "model": "places.restaurant", "fields": {"rating": "5", "management_rating": "0", "name": "BaxterStorey (Addleshaw Goddard)", "structural_rating": "0", "address": "Sovereign House,26 Sovereign Street,LS1 4BJ", "lat": "53.79352300000000", "hygiene_rating": "0", "long": "-1.54354000000000"}}, {"pk": "371279", "model": "places.restaurant", "fields": {"rating": "4", "management_rating": "10", "name": "BaxterStorey (Bupa)", "structural_rating": "0", "address": "Bridge House,Outwood Lane,LS18 4HP", "lat": "53.83381800000000", "hygiene_rating": "10", "long": "-1.62166000000000"}}, {"pk": "322001", "model": "places.restaurant", "fields": {"rating": "5", "management_rating": "0", "name": "BaxterStorey (N Power - Scarcroft Main Kitchen)", "structural_rating": "0", "address": "Scarcroft Main Kitchen,N Power Yorkshire Ltd,LS14 3HS", "lat": "53.86497000000000", "hygiene_rating": "0", "long": "-1.44579300000000"}}, {"pk": "323142", "model": "places.restaurant", "fields": {"rating": "4", "management_rating": "5", "name": "BaxterStorey (N Power - Scarcroft Old Block)", "structural_rating": "5", "address": "Scarcroft Old Block,N Power Yorkshire Ltd,LS14 3HS", "lat": "53.86497000000000", "hygiene_rating": "10", "long": "-1.44579300000000"}}, {"pk": "322002", "model": "places.restaurant", "fields": {"rating": "4", "management_rating": "5", "name": "BaxterStorey (N Power Seacroft)", "structural_rating": "5", "address": "N Power Yorkshire Ltd,Limewood Approach,LS14 1NG", "lat": "53.82985500000000", "hygiene_rating": "10", "long": "-1.46376000000000"}}, {"pk": "322533", "model": "places.restaurant", "fields": {"rating": "5", "management_rating": "0", "name": "BaxterStorey (Sainsburys Staff Canteen)", "structural_rating": "0", "address": "1 Stile Hill Way,Colton,LS15 9JA", "lat": "53.79472400000000", "hygiene_rating": "0", "long": "-1.43519700000000"}}, {"pk": "322531", "model": "places.restaurant", "fields": {"rating": "5", "management_rating": "0", "name": "BaxterStorey (Sainsburys Staff Canteen)", "structural_rating": "5", "address": "Moor Allerton Centre,King Lane,LS17 5NY", "lat": "53.84493400000000", "hygiene_rating": "0", "long": "-1.55080900000000"}}, {"pk": "322532", "model": "places.restaurant", "fields": {"rating": "5", "management_rating": "0", "name": "BaxterStorey (Sainsburys Staff Canteen)", "structural_rating": "0", "address": "White Rose Shopping Centre,Dewsbury Road,LS11 8LS", "lat": "53.75864500000000", "hygiene_rating": "5", "long": "-1.57423900000000"}}, {"pk": "481483", "model": "places.restaurant", "fields": {"rating": "5", "management_rating": "0", "name": "Bay Horse", "structural_rating": "0", "address": "14-16 Parkside Road,Meanwood,LS6 4NB", "lat": "53.83597700000000", "hygiene_rating": "0", "long": "-1.56885100000000"}}, {"pk": "580061", "model": "places.restaurant", "fields": {"rating": "3", "management_rating": "10", "name": "Bay Horse", "structural_rating": "10", "address": "42 - 44 Bradford Road,East Ardsley,WF3 2HQ", "lat": "53.72071000000000", "hygiene_rating": "10", "long": "-1.53893400000000"}}, {"pk": "467188", "model": "places.restaurant", "fields": {"rating": "5", "management_rating": "5", "name": "Bay Horse", "structural_rating": "5", "address": "66 Town Street,Farsley,LS28 5LF", "lat": "53.81408000000000", "hygiene_rating": "5", "long": "-1.67052900000000"}}, {"pk": "467397", "model": "places.restaurant", "fields": {"rating": "5", "management_rating": "5", "name": "Bay Horse", "structural_rating": "5", "address": "Woodhouse Hill Road,Hunslet,LS10 2DN", "lat": "53.77230000000000", "hygiene_rating": "5", "long": "-1.52906800000000"}}, {"pk": "321146", "model": "places.restaurant", "fields": {"rating": "3", "management_rating": "10", "name": "Bay Horse Hotel", "structural_rating": "10", "address": "20 Market Place,Otley,LS21 3AQ", "lat": "53.90561300000000", "hygiene_rating": "10", "long": "-1.69404200000000"}}, {"pk": "467366", "model": "places.restaurant", "fields": {"rating": "3", "management_rating": "10", "name": "Bay Horse Inn", "structural_rating": "10", "address": "36 High Street,Clifford,LS23 6HR", "lat": "53.89295600000000", "hygiene_rating": "5", "long": "-1.34852500000000"}}, {"pk": "321640", "model": "places.restaurant", "fields": {"rating": "5", "management_rating": "5", "name": "Bayswater Supermarket", "structural_rating": "0", "address": "5 Bayswater View,Harehills,LS8 5LQ", "lat": "53.81103400000000", "hygiene_rating": "0", "long": "-1.52105600000000"}}, {"pk": "564043", "model": "places.restaurant", "fields": {"rating": "4", "management_rating": "10", "name": "Beat Bar", "structural_rating": "10", "address": "66 Merrion Street,Leeds,LS2 8LW", "lat": "53.80094800000000", "hygiene_rating": "0", "long": "-1.54380900000000"}}, {"pk": "320050", "model": "places.restaurant", "fields": {"rating": "5", "management_rating": "0", "name": "Becketts Bank", "structural_rating": "0", "address": "28 - 30 Park Row,Leeds,LS1 5JD", "lat": "53.79814800000000", "hygiene_rating": "0", "long": "-1.54749800000000"}}, {"pk": "319549", "model": "places.restaurant", "fields": {"rating": "4", "management_rating": "5", "name": "Beckhill Stores", "structural_rating": "5", "address": "41 Beckhill Approach,Potternewton,LS7 2SA", "lat": "53.82689400000000", "hygiene_rating": "10", "long": "-1.55770200000000"}}, {"pk": "636844", "model": "places.restaurant", "fields": {"rating": "5", "management_rating": "5", "name": "Beckys", "structural_rating": "0", "address": "16 Bruntcliffe Road,Morley,LS27 0LQ", "lat": "53.74345600000000", "hygiene_rating": "5", "long": "-1.62285000000000"}}, {"pk": "467318", "model": "places.restaurant", "fields": {"rating": "4", "management_rating": "10", "name": "Bedford Arms", "structural_rating": "5", "address": "Main Street,East Ardsley,WF3 2AT", "lat": "53.72487300000000", "hygiene_rating": "5", "long": "-1.53688800000000"}}, {"pk": "486671", "model": "places.restaurant", "fields": {"rating": "4", "management_rating": "10", "name": "Beecher's Fish And Chips", "structural_rating": "0", "address": "168 High Street,Boston Spa,LS23 6BW", "lat": "53.90527500000000", "hygiene_rating": "0", "long": "-1.34790700000000"}}, {"pk": "467104", "model": "places.restaurant", "fields": {"rating": "5", "management_rating": "5", "name": "Beechwood Hotel", "structural_rating": "5", "address": "32 - 34 Street Lane,Roundhay,LS8 2ET", "lat": "53.84290200000000", "hygiene_rating": "5", "long": "-1.50478000000000"}}, {"pk": "467075", "model": "places.restaurant", "fields": {"rating": "5", "management_rating": "5", "name": "Beechwood Working Mens Club", "structural_rating": "5", "address": "Ramshead Drive,Seacroft,LS14 1BS", "lat": "53.82865200000000", "hygiene_rating": "5", "long": "-1.46818100000000"}}, {"pk": "467414", "model": "places.restaurant", "fields": {"rating": 0, "management_rating": 0, "name": "Beer Ritz UK Ltd", "structural_rating": 0, "address": "14 Weetwood Lane,Weetwood,LS16 5LX", "lat": "53.82877800000000", "hygiene_rating": 0, "long": "-1.58167200000000"}}, {"pk": "322534", "model": "places.restaurant", "fields": {"rating": "0", "management_rating": "20", "name": "Beeston Fisheries", "structural_rating": "20", "address": "328 Dewsbury Road,Hunslet,LS11 7DJ", "lat": "53.77107700000000", "hygiene_rating": "20", "long": "-1.55001900000000"}}, {"pk": "320940", "model": "places.restaurant", "fields": {"rating": "5", "management_rating": "0", "name": "Beeston Hill United Free Church", "structural_rating": "5", "address": "Malvern Road,Beeston,LS11 8PD", "lat": "53.77960500000000", "hygiene_rating": "5", "long": "-1.55431400000000"}}, {"pk": "322417", "model": "places.restaurant", "fields": {"rating": "3", "management_rating": "10", "name": "Beeston News", "structural_rating": "10", "address": "299 Beeston Road,Beeston,LS11 7HX", "lat": "53.77409300000000", "hygiene_rating": "10", "long": "-1.56364300000000"}}, {"pk": "320967", "model": "places.restaurant", "fields": {"rating": "4", "management_rating": "10", "name": "Beeston Parish Social Club", "structural_rating": "0", "address": "St Marys Church,Town Street,LS11 8PN", "lat": "53.77240600000000", "hygiene_rating": "0", "long": "-1.56930500000000"}}, {"pk": "550347", "model": "places.restaurant", "fields": {"rating": "4", "management_rating": "10", "name": "Before And After School Club (Pudsey Waterloo Primary)", "structural_rating": "10", "address": "Waterloo Primary School,Victoria Road,LS28 7SR", "lat": "53.79651300000000", "hygiene_rating": "0", "long": "-1.67531200000000"}}, {"pk": "495527", "model": "places.restaurant", "fields": {"rating": "1", "management_rating": "20", "name": "Behind The Town Hall", "structural_rating": "10", "address": "Unit 2C St George House,40 Great George Street,LS1 3DL", "lat": "53.80171400000000", "hygiene_rating": "15", "long": "-1.55388200000000"}}, {"pk": "321993", "model": "places.restaurant", "fields": {"rating": "3", "management_rating": "10", "name": "Beijing Express", "structural_rating": "10", "address": "302 Armley Ridge Road,Armley,LS12 2RD", "lat": "53.80955700000000", "hygiene_rating": "10", "long": "-1.60684400000000"}}, {"pk": "349029", "model": "places.restaurant", "fields": {"rating": "5", "management_rating": "5", "name": "Bella Italia", "structural_rating": "0", "address": "11B Cardigan Fields Leisure Park  ,Cardigan Fields Road,LS4 2DG", "lat": "53.80437200000000", "hygiene_rating": "0", "long": "-1.58335700000000"}}, {"pk": "504544", "model": "places.restaurant", "fields": {"rating": "5", "management_rating": "5", "name": "Bella Italia (Leeds Briggate)", "structural_rating": "5", "address": "145 Briggate,Leeds,LS1 6BR", "lat": "53.79647400000000", "hygiene_rating": "0", "long": "-1.54214200000000"}}, {"pk": "504550", "model": "places.restaurant", "fields": {"rating": "5", "management_rating": "5", "name": "Bellbrooke Cafe", "structural_rating": "5", "address": "8 Bellbrooke Place,Burmantofts,LS9 6AR", "lat": "53.80853500000000", "hygiene_rating": "0", "long": "-1.50775200000000"}}, {"pk": "321079", "model": "places.restaurant", "fields": {"rating": "5", "management_rating": "0", "name": "Belle Isle Family Centre", "structural_rating": "0", "address": "St John And St Barnabas Church,Windmill Approach,LS10 3PG", "lat": "53.75367100000000", "hygiene_rating": "0", "long": "-1.52543900000000"}}, {"pk": "321878", "model": "places.restaurant", "fields": {"rating": "5", "management_rating": "5", "name": "Belle Isle Post Office", "structural_rating": "0", "address": "5 - 6 Belle Isle Parade,Beeston,LS10 3AH", "lat": "53.76575900000000", "hygiene_rating": "5", "long": "-1.52979400000000"}}, {"pk": "430866", "model": "places.restaurant", "fields": {"rating": "4", "management_rating": "5", "name": "Belle Isle Working Mens Club", "structural_rating": "5", "address": "Belle Isle Road,Belle Isle,LS10 3PE", "lat": "53.75389200000000", "hygiene_rating": "10", "long": "-1.52668000000000"}}, {"pk": "319564", "model": "places.restaurant", "fields": {"rating": "4", "management_rating": "10", "name": "Belle Vue Stores", "structural_rating": "0", "address": "153 Belle Vue Road,Woodhouse,LS3 1HE", "lat": "53.80397700000000", "hygiene_rating": "5", "long": "-1.56580800000000"}}, {"pk": "321527", "model": "places.restaurant", "fields": {"rating": "5", "management_rating": "5", "name": "Bellissimo Sandwich Bar", "structural_rating": "0", "address": "Minerva House,29 - 30 East Parade,LS1 5TN", "lat": "53.79767400000000", "hygiene_rating": "0", "long": "-1.55012800000000"}}, {"pk": "320615", "model": "places.restaurant", "fields": {"rating": "5", "management_rating": "0", "name": "Benedicts", "structural_rating": "5", "address": "Ashfield,Wetherby,LS22 7TF", "lat": "53.93400900000000", "hygiene_rating": "5", "long": "-1.38186700000000"}}, {"pk": "537121", "model": "places.restaurant", "fields": {"rating": "3", "management_rating": "10", "name": "Bengal Brasserie", "structural_rating": "10", "address": "65 Haddon Road,Burley,LS4 2JE", "lat": "53.80793300000000", "hygiene_rating": "10", "long": "-1.58386800000000"}}, {"pk": "405914", "model": "places.restaurant", "fields": {"rating": "4", "management_rating": "10", "name": "Bengal Brasserie", "structural_rating": "5", "address": "Victoria Court,Wetherby,LS22 6JA", "lat": "53.92797400000000", "hygiene_rating": "5", "long": "-1.38451500000000"}}, {"pk": "321267", "model": "places.restaurant", "fields": {"rating": "5", "management_rating": "5", "name": "Bengal Spice (Roundhay)", "structural_rating": "5", "address": "143 Street Lane,Roundhay,LS8 1AA", "lat": "53.84440700000000", "hygiene_rating": "5", "long": "-1.51917100000000"}}, {"pk": "467137", "model": "places.restaurant", "fields": {"rating": "5", "management_rating": "5", "name": "Bennetts Fisheries", "structural_rating": "5", "address": "141 Town Street,Stanningley,LS28 6ES", "lat": "53.80621600000000", "hygiene_rating": "5", "long": "-1.66407700000000"}}, {"pk": "321869", "model": "places.restaurant", "fields": {"rating": "3", "management_rating": "10", "name": "Bennetts Quality Butchers", "structural_rating": "10", "address": "Stall 29 Area 1875 Kirkgate Market,Kirkgate,", "lat": null, "hygiene_rating": "5", "long": null}}, {"pk": "319528", "model": "places.restaurant", "fields": {"rating": "4", "management_rating": "10", "name": "Bens Corner Shop", "structural_rating": "5", "address": "5 Aston Mount,Bramley,LS13 2BY", "lat": "53.80741100000000", "hygiene_rating": "5", "long": "-1.62145700000000"}}, {"pk": "528954", "model": "places.restaurant", "fields": {"rating": "4", "management_rating": "10", "name": "Bens Kitchen", "structural_rating": "0", "address": "43 Holbeck Lane,Holbeck,LS11 9UL", "lat": "53.78986300000000", "hygiene_rating": "0", "long": "-1.56241700000000"}},